{
  "version": 0.6,
  "generator": "Overpass API 0.7.62.10 2d4cfc48",
  "osm3s": {
    "timestamp_osm_base": "2026-01-31T20:01:30Z",
    "copyright": "The data included in this document is from www.openstreetmap.org. The data is made available under ODbL."
  },
  "elements": [
    {
      "type": "node",
      "id": 365214586,
      "lat": 42.6532621,
      "lon": -73.7882819,
      "tags": {
        "addr:city": "Albany",
        "brand": "Stewart's Shops",
        "brand:wikidata": "Q7615690",
        "name": "Stewart's Shops",
        "shop": "convenience",
        "url": "http://stewartsshops.com/LocationFinder/index.cfm?InstanceID=1013&step=show_detail&LocationFinderID=61"
      }
    },
    {
      "type": "node",
      "id": 365214591,
      "lat": 42.6637916,
      "lon": -73.7749047,
      "tags": {
        "addr:city": "Albany",
        "name": "Miami Market",
        "old_name": "Stewart's Shops",
        "shop": "convenience"
      }
    },
    {
      "type": "node",
      "id": 370696502,
      "lat": 42.6498792,
      "lon": -73.7523476,
      "tags": {
        "addr:city": "Albany",
        "addr:housenumber": "69",
        "addr:postcode": "12207",
        "addr:state": "NY",
        "addr:street": "State Street",
        "amenity": "bank",
        "atm": "yes",
        "brand": "Bank of America",
        "brand:wikidata": "Q487907",
        "description": "Oldest continuously operating bank branch in the United States.",
        "name": "Bank of America",
        "opening_hours": "Mo-Fr 09:00-16:00; Sa-Su off; PH off",
        "phone": "+1- 518-626-2346",
        "website": "https://locators.bankofamerica.com/ny/albany/financial-centers-albany-13627.html"
      }
    },
    {
      "type": "node",
      "id": 370696503,
      "lat": 42.6502037,
      "lon": -73.7528209,
      "tags": {
        "addr:city": "Albany",
        "addr:housenumber": "10",
        "addr:state": "NY",
        "addr:street": "North Pearl Street",
        "amenity": "bank",
        "atm": "yes",
        "brand": "Citizens Bank",
        "brand:wikidata": "Q5122694",
        "name": "Citizens Bank",
        "short_name": "Citizens"
      }
    },
    {
      "type": "node",
      "id": 370696504,
      "lat": 42.6495105,
      "lon": -73.7527276,
      "tags": {
        "addr:city": "Albany",
        "addr:housenumber": "80",
        "addr:postcode": "12207",
        "addr:state": "NY",
        "addr:street": "State Street",
        "amenity": "bank",
        "atm": "yes",
        "brand": "M&T Bank",
        "brand:wikidata": "Q3272257",
        "name": "M&T Bank",
        "website": "https://locations.mtb.com/ny/albany/bank-branches-and-atms-albany-ny-2056.html"
      }
    },
    {
      "type": "node",
      "id": 370696506,
      "lat": 42.6492998,
      "lon": -73.7513589,
      "tags": {
        "addr:city": "Albany",
        "addr:housenumber": "41",
        "addr:postcode": "12207",
        "addr:state": "NY",
        "addr:street": "State Street",
        "amenity": "bank",
        "atm": "yes",
        "name": "Berkshire Bank"
      }
    },
    {
      "type": "node",
      "id": 370696507,
      "lat": 42.6490557,
      "lon": -73.7518459,
      "tags": {
        "amenity": "bank",
        "atm": "yes",
        "brand": "NBT Bank",
        "brand:wikidata": "Q6952868",
        "name": "NBT Bank"
      }
    },
    {
      "type": "node",
      "id": 370696693,
      "lat": 42.6494573,
      "lon": -73.7532592,
      "tags": {
        "addr:city": "Albany",
        "amenity": "restaurant"
      }
    },
    {
      "type": "node",
      "id": 370697204,
      "lat": 42.6503233,
      "lon": -73.7526782,
      "tags": {
        "addr:city": "Albany",
        "addr:housenumber": "10",
        "addr:postcode": "12207",
        "addr:state": "NY",
        "addr:street": "North Pearl Street",
        "amenity": "cafe",
        "brand": "Starbucks",
        "brand:wikidata": "Q37158",
        "cuisine": "coffee_shop",
        "name": "Starbucks",
        "official_name": "Starbucks Coffee",
        "takeaway": "yes"
      }
    },
    {
      "type": "node",
      "id": 375955791,
      "lat": 42.6476577,
      "lon": -73.7537741,
      "tags": {
        "addr:city": "Albany",
        "addr:housenumber": "66",
        "addr:postcode": "12207",
        "addr:state": "NY",
        "addr:street": "South Pearl Street",
        "amenity": "bank",
        "atm": "yes",
        "brand": "KeyBank",
        "brand:wikidata": "Q1740314",
        "drive_through": "no",
        "name": "KeyBank",
        "opening_hours": "Mo-Fr 09:00-16:00; Sa-Su off; PH off",
        "phone": "+1-518-257-8702",
        "website": "https://www.key.com/locations/ny/albany/BRCH32900423/66-s-pearl-st"
      }
    },
    {
      "type": "node",
      "id": 440498164,
      "lat": 42.6502635,
      "lon": -73.7521307,
      "tags": {
        "addr:city": "Albany",
        "addr:country": "US",
        "addr:housenumber": "17",
        "addr:postcode": "12207",
        "addr:state": "NY",
        "addr:street": "North Pearl Street",
        "amenity": "pharmacy",
        "brand": "Rite Aid",
        "brand:wikidata": "Q3433273",
        "dispensing": "yes",
        "healthcare": "pharmacy",
        "name": "Rite Aid",
        "phone": "+1 518-434-6024"
      }
    },
    {
      "type": "node",
      "id": 678798546,
      "lat": 42.6613564,
      "lon": -73.7429464,
      "tags": {
        "addr:city": "Albany",
        "addr:state": "NY",
        "addr:street": "Thatcher Street",
        "amenity": "pub",
        "name": "Thatcher Street Pub"
      }
    },
    {
      "type": "node",
      "id": 679495451,
      "lat": 42.652827,
      "lon": -73.7514854,
      "tags": {
        "addr:city": "Albany",
        "addr:housenumber": "10",
        "addr:postcode": "12207",
        "addr:state": "NY",
        "addr:street": "Sheridan Avenue",
        "addr:unit": "1",
        "amenity": "bar",
        "name": "Dawn's Victory Sports Cafe",
        "nysgissam:nysaddresspointid": "ALBA008506;ALBA112139",
        "old_name": "Victory Cafe",
        "url": "https://www.dawnsvictorysportscafe.com/"
      }
    },
    {
      "type": "node",
      "id": 679495455,
      "lat": 42.6533342,
      "lon": -73.7486679,
      "tags": {
        "addr:city": "Albany",
        "addr:housenumber": "677",
        "addr:state": "NY",
        "addr:street": "Broadway",
        "alt_name": "Angelo's 677 Prime",
        "amenity": "restaurant",
        "bar": "yes",
        "cuisine": "steak_house",
        "live_music": "yes",
        "name": "677 Prime",
        "phone": "+1 518-427-7463",
        "website": "https://www.677prime.com/"
      }
    },
    {
      "type": "node",
      "id": 679495456,
      "lat": 42.6540692,
      "lon": -73.7477348,
      "tags": {
        "addr:city": "Albany",
        "addr:housenumber": "19",
        "addr:postcode": "12207",
        "addr:state": "NY",
        "addr:street": "Quackenbush Square",
        "amenity": "restaurant",
        "craft": "brewery",
        "name": "Common Roots Albany Outpost",
        "nysgissam:nysaddresspointid": "ALBA009077",
        "nysgissam:review": "no matching street nearby",
        "old_name": "Albany Pump Station",
        "operator": "Common Roots",
        "was:operator": "C. H. Evans Brewing Company",
        "website": "https://commonrootsbrewing.com/albany/",
        "wikidata": "Q4709372"
      }
    },
    {
      "type": "node",
      "id": 679497101,
      "lat": 42.6488078,
      "lon": -73.7512345,
      "tags": {
        "addr:city": "Albany",
        "addr:housenumber": "44",
        "addr:postcode": "12207",
        "addr:state": "NY",
        "addr:street": "State Street",
        "amenity": "restaurant",
        "cuisine": "steak_house;seafood",
        "name": "Jack's Oyster House",
        "not:brand:wikidata": "Q6110826",
        "note": "closed in 2022 and reopened in Dec 2025",
        "nysgissam:nysaddresspointid": "ALBA109955;ALBA103160",
        "website": "https://www.jacksoysterhouse.com/"
      }
    },
    {
      "type": "node",
      "id": 679497102,
      "lat": 42.64838,
      "lon": -73.750966,
      "tags": {
        "addr:city": "Albany",
        "addr:housenumber": "414",
        "addr:postcode": "12207",
        "addr:state": "NY",
        "addr:street": "Broadway",
        "amenity": "bar",
        "cuisine": "american",
        "name": "Loch & Quay",
        "nysgissam:nysaddresspointid": "ALBA008256",
        "old_name": "Franklin's Tower",
        "phone": "+1-518-389-7201"
      }
    },
    {
      "type": "node",
      "id": 679534539,
      "lat": 42.6486817,
      "lon": -73.7538333,
      "tags": {
        "addr:city": "Albany",
        "amenity": "fast_food",
        "cuisine": "pizza",
        "name": "Pizzeria Sapienza"
      }
    },
    {
      "type": "node",
      "id": 679534540,
      "lat": 42.6485831,
      "lon": -73.7538619,
      "tags": {
        "addr:city": "Albany",
        "amenity": "fast_food",
        "cuisine": "chinese",
        "name": "Lams Kitchen"
      }
    },
    {
      "type": "node",
      "id": 679534542,
      "lat": 42.6495143,
      "lon": -73.7531867,
      "tags": {
        "amenity": "fast_food",
        "cuisine": "sandwich",
        "name": "Soho Pita"
      }
    },
    {
      "type": "node",
      "id": 679534543,
      "lat": 42.6504283,
      "lon": -73.7520451,
      "tags": {
        "addr:city": "Albany",
        "addr:housenumber": "25",
        "addr:postcode": "12207",
        "addr:state": "NY",
        "addr:street": "North Pearl Street",
        "name": "Mr. Good Vybz",
        "old_name": "Cider Belly",
        "shop": "cannabis"
      }
    },
    {
      "type": "node",
      "id": 679900009,
      "lat": 42.6505308,
      "lon": -73.7516378,
      "tags": {
        "addr:city": "Albany",
        "amenity": "fast_food",
        "cuisine": "sandwich",
        "name": "The Cobblestone Lunch Shoppe",
        "old_name": "Sandwiches to Go"
      }
    },
    {
      "type": "node",
      "id": 679901693,
      "lat": 42.6508803,
      "lon": -73.7516557,
      "tags": {
        "addr:city": "Albany",
        "addr:housenumber": "39",
        "addr:postcode": "12207",
        "addr:state": "NY",
        "addr:street": "North Pearl Street",
        "alt_name": "Dunkin' Donuts",
        "amenity": "fast_food",
        "brand": "Dunkin'",
        "brand:wikidata": "Q847743",
        "contact:website": "https://locations.dunkindonuts.com/en/ny/albany/39-n-pearl-st/307866",
        "cuisine": "donut;coffee_shop",
        "drive_through": "no",
        "name": "Dunkin'",
        "opening_hours": "Mo-Fr 05:00-17:30; Sa-Su 06:00-15:00",
        "phone": "+1 518-427-0897",
        "ref": "307866",
        "takeaway": "yes",
        "website": "https://locations.dunkindonuts.com/en/ny/albany/39-n-pearl-st/307866"
      }
    },
    {
      "type": "node",
      "id": 679939508,
      "lat": 42.6532897,
      "lon": -73.7516606,
      "tags": {
        "addr:city": "Albany",
        "addr:housenumber": "25",
        "addr:state": "NY",
        "addr:street": "Chapel Street",
        "amenity": "restaurant",
        "cuisine": "indonesian",
        "name": "Yono's",
        "phone": "+1 518-436-7747",
        "url": "http://www.yonosrestaurant.com/"
      }
    },
    {
      "type": "node",
      "id": 712636548,
      "lat": 42.6351868,
      "lon": -73.7624124,
      "tags": {
        "name": "Kwik Stop",
        "shop": "convenience"
      }
    },
    {
      "type": "node",
      "id": 762927999,
      "lat": 42.6756786,
      "lon": -73.7490473,
      "tags": {
        "addr:city": "Albany",
        "addr:postcode": "12204",
        "addr:state": "NY",
        "addr:street": "Northern Boulevard",
        "amenity": "fast_food",
        "cuisine": "sandwich",
        "name": "Mr Subb",
        "phone": "+1 518 436 7571",
        "website": "http://www.mrsubb.com/"
      }
    },
    {
      "type": "node",
      "id": 765336129,
      "lat": 42.6341528,
      "lon": -73.7463907,
      "tags": {
        "amenity": "fast_food",
        "branch": "Subs",
        "brand": "Subway",
        "brand:wikidata": "Q244457",
        "cuisine": "sandwich",
        "fixme:atp": "no ATP match, check if still exists",
        "name": "Subway",
        "takeaway": "yes"
      }
    },
    {
      "type": "node",
      "id": 765336184,
      "lat": 42.6342942,
      "lon": -73.7464715,
      "tags": {
        "amenity": "fast_food",
        "name": "Hot Dog Charlies"
      }
    },
    {
      "type": "node",
      "id": 765336215,
      "lat": 42.6342307,
      "lon": -73.746434,
      "tags": {
        "amenity": "fast_food",
        "cuisine": "chinese",
        "name": "Ming's Garden Chinese Restaurant"
      }
    },
    {
      "type": "node",
      "id": 774223724,
      "lat": 42.6758847,
      "lon": -73.7487621,
      "tags": {
        "amenity": "bank",
        "atm": "yes",
        "name": "Trustco Bank"
      }
    },
    {
      "type": "node",
      "id": 834901429,
      "lat": 42.6498462,
      "lon": -73.7534027,
      "tags": {
        "addr:city": "Albany",
        "addr:housenumber": "100",
        "addr:postcode": "12207",
        "addr:state": "NY",
        "addr:street": "State Street",
        "brand": "FedEx Office",
        "brand:wikidata": "Q474379",
        "name": "FedEx Office",
        "operator": "FedEx",
        "shop": "copyshop"
      }
    },
    {
      "type": "node",
      "id": 882808705,
      "lat": 42.6637662,
      "lon": -73.7443626,
      "tags": {
        "name": "Albany Spring Service",
        "shop": "car_repair"
      }
    },
    {
      "type": "node",
      "id": 882808939,
      "lat": 42.6641865,
      "lon": -73.7444423,
      "tags": {
        "addr:city": "Albany",
        "addr:housenumber": "438",
        "addr:street": "North Pearl Street",
        "amenity": "bar",
        "name": "Just a Bar",
        "was:name": "Albany Elevator, Inc",
        "was:office": "company",
        "website": "https://justabar.com/"
      }
    },
    {
      "type": "node",
      "id": 1037979979,
      "lat": 42.6463912,
      "lon": -73.7565539,
      "tags": {
        "addr:city": "Albany",
        "name": "Madison Mart",
        "old_name": "Grand Deli",
        "shop": "convenience"
      }
    },
    {
      "type": "node",
      "id": 1039901428,
      "lat": 42.6428833,
      "lon": -73.7769766,
      "tags": {
        "amenity": "restaurant",
        "name": "The Delaware",
        "old_name": "The Kitchen Table;New World Bistro Bar"
      }
    },
    {
      "type": "node",
      "id": 1039901546,
      "lat": 42.642985,
      "lon": -73.776734,
      "tags": {
        "addr:city": "Albany",
        "addr:housenumber": "292",
        "addr:postcode": "12209-1755",
        "addr:state": "NY",
        "addr:street": "Delaware Avenue",
        "amenity": "bar",
        "name": "Delaware Supply",
        "phone": "+1-518-818-0927",
        "website": "https://www.delsup.beer/"
      }
    },
    {
      "type": "node",
      "id": 1042213413,
      "lat": 42.6598521,
      "lon": -73.7678343,
      "tags": {
        "amenity": "restaurant",
        "cuisine": "mexican",
        "name": "Sabor Latino Taqueria",
        "old_name": "Mr. Tikka Kabab"
      }
    },
    {
      "type": "node",
      "id": 1052018006,
      "lat": 42.6603349,
      "lon": -73.7671379,
      "tags": {
        "name": "Sham Candy and Grocery",
        "shop": "convenience"
      }
    },
    {
      "type": "node",
      "id": 1052018016,
      "lat": 42.6598902,
      "lon": -73.7677712,
      "tags": {
        "name": "Shahbain Eli/Grocery",
        "shop": "convenience"
      }
    },
    {
      "type": "node",
      "id": 1052018021,
      "lat": 42.6591387,
      "lon": -73.7663309,
      "tags": {
        "addr:city": "Albany",
        "air_conditioning": "yes",
        "amenity": "pub",
        "atm": "yes",
        "contact:facebook": "WaterworksPub",
        "contact:instagram": "waterworkspub",
        "cuisine": "american",
        "email": "pub@waterworkspub.com",
        "indoor_seating": "yes",
        "lgbtq": "primary",
        "name": "Waterworks Pub",
        "opening_hours": "Mo-Su 13:00-04:00",
        "outdoor_seating": "no",
        "payment:credit_cards": "yes",
        "payment:debit_cards": "yes",
        "phone": "+1-518-465-9079",
        "smoking": "outside",
        "sport": "billiards",
        "website": "https://www.waterworkspub.com",
        "wheelchair": "no"
      }
    },
    {
      "type": "node",
      "id": 1052198244,
      "lat": 42.6532135,
      "lon": -73.7873699,
      "tags": {
        "name": "The Wine Shop",
        "shop": "alcohol"
      }
    },
    {
      "type": "node",
      "id": 1052198289,
      "lat": 42.6533466,
      "lon": -73.7864801,
      "tags": {
        "name": "Sainato's Market",
        "shop": "deli"
      }
    },
    {
      "type": "node",
      "id": 1052198331,
      "lat": 42.653276,
      "lon": -73.788483,
      "tags": {
        "addr:city": "Albany",
        "addr:housenumber": "289",
        "addr:postcode": "12208",
        "addr:state": "NY",
        "addr:street": "New Scotland Avenue",
        "amenity": "restaurant",
        "bar": "yes",
        "name": "Albany Ale and Oyster",
        "old_name": "Navona;New Scotland Taco + Bar;Midtown Tap and Tea Room",
        "phone": "+1-518-487-4152",
        "website": "https://www.albanyaleandoyster.com/"
      }
    },
    {
      "type": "node",
      "id": 1052198341,
      "lat": 42.65326,
      "lon": -73.788187,
      "tags": {
        "addr:city": "Albany",
        "addr:housenumber": "283",
        "addr:postcode": "12208",
        "addr:state": "NY",
        "addr:street": "New Scotland Avenue",
        "amenity": "restaurant",
        "bar": "yes",
        "cuisine": "american",
        "live_music": "yes",
        "name": "The Fountain Restaurant",
        "phone": "+1-518-482-9898",
        "website": "http://www.thefountainrestaurantny.com/"
      }
    },
    {
      "type": "node",
      "id": 1052198353,
      "lat": 42.6531864,
      "lon": -73.7867801,
      "tags": {
        "name": "Joe Ritmo's Barber Salon",
        "shop": "hairdresser"
      }
    },
    {
      "type": "node",
      "id": 1052198412,
      "lat": 42.6532357,
      "lon": -73.787786,
      "tags": {
        "amenity": "bar",
        "name": "Graney's Bar & Grill"
      }
    },
    {
      "type": "node",
      "id": 1052198458,
      "lat": 42.6532316,
      "lon": -73.7876657,
      "tags": {
        "amenity": "restaurant",
        "cuisine": "japanese",
        "name": "Sake Cafe"
      }
    },
    {
      "type": "node",
      "id": 1052198460,
      "lat": 42.6536263,
      "lon": -73.785785,
      "tags": {
        "name": "Sweet Treats",
        "shop": "confectionery"
      }
    },
    {
      "type": "node",
      "id": 1052198491,
      "lat": 42.6532417,
      "lon": -73.7878906,
      "tags": {
        "name": "Cuttery",
        "shop": "hairdresser"
      }
    },
    {
      "type": "node",
      "id": 1052994716,
      "lat": 42.6609731,
      "lon": -73.74477,
      "tags": {
        "amenity": "pub",
        "name": "Wolff's Biergarten",
        "smoking": "outside"
      }
    },
    {
      "type": "node",
      "id": 1053093434,
      "lat": 42.6420704,
      "lon": -73.7787991,
      "tags": {
        "cuisine": "italian",
        "name": "Cardona's Market",
        "origin": "italian",
        "shop": "deli"
      }
    },
    {
      "type": "node",
      "id": 1057870468,
      "lat": 42.66358,
      "lon": -73.75936,
      "tags": {
        "name": "Smoke Shack Outlet",
        "old_name": "Subway",
        "shop": "tobacco",
        "was:amenity": "fast_food"
      }
    },
    {
      "type": "node",
      "id": 1057870515,
      "lat": 42.663692,
      "lon": -73.7592506,
      "tags": {
        "brand": "Family Dollar",
        "brand:wikidata": "Q5433101",
        "name": "Family Dollar",
        "shop": "variety_store"
      }
    },
    {
      "type": "node",
      "id": 1069568684,
      "lat": 42.6523293,
      "lon": -73.776522,
      "tags": {
        "amenity": "bar",
        "name": "Recovery Room Sports Grill"
      }
    },
    {
      "type": "node",
      "id": 1069568731,
      "lat": 42.6523076,
      "lon": -73.7761519,
      "tags": {
        "addr:city": "Albany",
        "addr:housenumber": "62",
        "addr:postcode": "12208",
        "addr:state": "NY",
        "addr:street": "New Scotland Avenue",
        "amenity": "cafe",
        "branch": "New Scotland Avenue",
        "brand": "Starbucks",
        "brand:wikidata": "Q37158",
        "cuisine": "coffee_shop",
        "name": "Starbucks",
        "official_name": "Starbucks Coffee",
        "phone": "+1 518-320-8546",
        "ref": "17270",
        "takeaway": "yes",
        "website": "https://www.starbucks.com/store-locator/store/17270/new-scotland-avenue-62-new-scotland-ave-albany-ny-122083466-us"
      }
    },
    {
      "type": "node",
      "id": 1069662797,
      "lat": 42.6394877,
      "lon": -73.785148,
      "tags": {
        "brand": "Stewart's Shops",
        "brand:wikidata": "Q7615690",
        "name": "Stewart's Shops",
        "shop": "convenience"
      }
    },
    {
      "type": "node",
      "id": 1082977869,
      "lat": 42.6502265,
      "lon": -73.7540586,
      "tags": {
        "amenity": "bank",
        "atm": "yes",
        "name": "Trustco Bank"
      }
    },
    {
      "type": "node",
      "id": 1082977928,
      "lat": 42.6514312,
      "lon": -73.7550439,
      "tags": {
        "amenity": "bank",
        "atm": "yes",
        "brand": "TD Bank",
        "brand:wikidata": "Q7669891",
        "name": "TD Bank",
        "short_name": "TD",
        "website": "https://locations.td.com/us/125-state-street-state-street-ny"
      }
    },
    {
      "type": "node",
      "id": 1100747758,
      "lat": 42.670068,
      "lon": -73.7782307,
      "tags": {
        "addr:city": "Albany",
        "addr:country": "US",
        "addr:floor": "Floor 1",
        "addr:housenumber": "519",
        "addr:postcode": "12206",
        "addr:state": "NY",
        "addr:street": "Central Avenue",
        "amenity": "restaurant",
        "cuisine": "indian",
        "name": "Royal India",
        "nysgissam:nysaddresspointid": "ALBA152852;ALBA020636",
        "phone": "+1-518-482-4555"
      }
    },
    {
      "type": "node",
      "id": 1160355856,
      "lat": 42.6533217,
      "lon": -73.7857409,
      "tags": {
        "amenity": "fast_food",
        "brand": "Subway",
        "brand:wikidata": "Q244457",
        "cuisine": "sandwich",
        "fixme:atp": "no ATP match, check if still exists",
        "name": "Subway",
        "takeaway": "yes"
      }
    },
    {
      "type": "node",
      "id": 1215426312,
      "lat": 42.6587582,
      "lon": -73.7511109,
      "tags": {
        "name": "Albany County Historical Association",
        "office": "ngo"
      }
    },
    {
      "type": "node",
      "id": 1228483783,
      "lat": 42.6413852,
      "lon": -73.7816735,
      "tags": {
        "amenity": "pharmacy",
        "brand": "CVS Pharmacy",
        "brand:website": "https://www.cvs.com/",
        "brand:wikidata": "Q2078880",
        "healthcare": "pharmacy",
        "name": "CVS Pharmacy",
        "short_name": "CVS",
        "website": "https://www.cvs.com/store-locator/albany-ny-pharmacies/415-419-delaware-avenue-albany-ny-12209/storeid=600"
      }
    },
    {
      "type": "node",
      "id": 1228524673,
      "lat": 42.646708,
      "lon": -73.758024,
      "tags": {
        "addr:city": "Albany",
        "addr:housenumber": "180",
        "addr:postcode": "12202-1708",
        "addr:state": "NY",
        "addr:street": "Madison Avenue",
        "amenity": "restaurant",
        "bar": "yes",
        "cuisine": "pizza;american",
        "name": "Hill Street Cafe",
        "phone": "+1-518-462-3544"
      }
    },
    {
      "type": "node",
      "id": 1228524703,
      "lat": 42.6460466,
      "lon": -73.7548268,
      "tags": {
        "addr:city": "Albany",
        "amenity": "fast_food",
        "cuisine": "chicken",
        "name": "Pearl Fried Chicken",
        "old_name": "Golden Fried Chicken"
      }
    },
    {
      "type": "node",
      "id": 1228524733,
      "lat": 42.645974,
      "lon": -73.7551655,
      "tags": {
        "addr:city": "Albany",
        "addr:housenumber": "121",
        "addr:postcode": "12207",
        "addr:state": "NY",
        "addr:street": "Madison Avenue",
        "amenity": "restaurant",
        "name": "Hattie's Restaurant",
        "note": "Lombardo's closed dec 31 2018, Hattie's Restaurant opened in 2024"
      }
    },
    {
      "type": "node",
      "id": 1228524795,
      "lat": 42.646909,
      "lon": -73.756182,
      "tags": {
        "addr:city": "Albany",
        "addr:housenumber": "49",
        "addr:postcode": "12207",
        "addr:state": "NY",
        "addr:street": "Grand Street",
        "amenity": "restaurant",
        "cuisine": "italian",
        "name": "Cafe Capriccio",
        "phone": "+1-518-465-0439",
        "website": "https://www.cafecapriccio.com/"
      }
    },
    {
      "type": "node",
      "id": 1228524800,
      "lat": 42.6461867,
      "lon": -73.7559131,
      "tags": {
        "addr:city": "Albany",
        "name": "Lucky Cat Laundromat",
        "old_name": "Angelo's Submarine",
        "self_service": "yes",
        "shop": "laundry",
        "was:amenity": "restaurant"
      }
    },
    {
      "type": "node",
      "id": 1234833817,
      "lat": 42.6524022,
      "lon": -73.7511667,
      "tags": {
        "amenity": "restaurant",
        "name": "Blue 82"
      }
    },
    {
      "type": "node",
      "id": 1234833819,
      "lat": 42.652307,
      "lon": -73.750761,
      "tags": {
        "addr:city": "Albany",
        "addr:country": "US",
        "addr:flats": "100;200-201;300;400",
        "addr:housenumber": "79",
        "addr:postcode": "12207",
        "addr:state": "NY",
        "addr:street": "North Pearl Street",
        "amenity": "restaurant",
        "name": "The Hollow + Kitchen",
        "nysgissam:nysaddresspointid": "ALBA137477;ALBA137419;ALBA137454;ALBA137521;ALBA137470",
        "old_name": "The Bayou",
        "phone": "+1-528-426-8550",
        "website": "https://www.thehollowalbany.com/"
      }
    },
    {
      "type": "node",
      "id": 1234833831,
      "lat": 42.6513448,
      "lon": -73.7514044,
      "tags": {
        "addr:city": "Albany",
        "amenity": "restaurant",
        "cuisine": "pizza",
        "name": "Pizzeria 54",
        "old_name": "Envy Lounge"
      }
    },
    {
      "type": "node",
      "id": 1234833832,
      "lat": 42.6520746,
      "lon": -73.7505772,
      "tags": {
        "addr:city": "Albany",
        "alt_name": "Mensroom Barbershop",
        "name": "Mens Room",
        "shop": "hairdresser"
      }
    },
    {
      "type": "node",
      "id": 1271235360,
      "lat": 42.6652671,
      "lon": -73.7734193,
      "tags": {
        "addr:city": "Albany",
        "addr:housenumber": "324",
        "addr:postcode": "12206",
        "addr:state": "NY",
        "addr:street": "Central Avenue",
        "amenity": "fast_food",
        "cuisine": "mexican",
        "diet:halal": "yes",
        "name": "Taki Taki Halal Mexican Grill",
        "old_name": "Subway",
        "takeaway": "yes"
      }
    },
    {
      "type": "node",
      "id": 1290917989,
      "lat": 42.6532926,
      "lon": -73.7736208,
      "tags": {
        "brand": "CVS Pharmacy",
        "brand:website": "https://www.cvs.com/",
        "brand:wikidata": "Q2078880",
        "drive_through": "yes",
        "name": "CVS Pharmacy",
        "shop": "chemist",
        "short_name": "CVS",
        "website": "https://www.cvs.com/store-locator/albany-ny-pharmacies/16-new-scotland-ave-albany-ny-12208/storeid=134"
      }
    },
    {
      "type": "node",
      "id": 1319319194,
      "lat": 42.6477355,
      "lon": -73.7506517,
      "tags": {
        "addr:city": "Albany",
        "addr:flats": "1;3-4",
        "addr:housenumber": "388",
        "addr:postcode": "12207",
        "addr:state": "NY",
        "addr:street": "Broadway",
        "amenity": "restaurant",
        "name": "Ophelia's on Broadway",
        "nysgissam:nysaddresspointid": "ALBA127850;ALBA127848;ALBA127830",
        "old_name": "Nanola South;Parish Public House;Red Square"
      }
    },
    {
      "type": "node",
      "id": 1330360522,
      "lat": 42.6499391,
      "lon": -73.7524364,
      "tags": {
        "addr:city": "Albany",
        "addr:country": "US",
        "addr:housenumber": "1",
        "addr:postcode": "12207",
        "addr:state": "NY",
        "addr:street": "North Pearl Street",
        "amenity": "fast_food",
        "brand": "Subway",
        "brand:wikidata": "Q244457",
        "check_date:opening_hours": "2025-07-18",
        "cuisine": "sandwich",
        "name": "Subway",
        "opening_hours": "Mo-Fr 08:00-21:00; Sa-Su 09:00-19:00",
        "phone": "+1 518-449-2773",
        "takeaway": "yes",
        "website": "https://restaurants.subway.com/united-states/ny/albany/1-north-pearl-street"
      }
    },
    {
      "type": "node",
      "id": 1366295389,
      "lat": 42.6517334,
      "lon": -73.7677813,
      "tags": {
        "alt_name": "The Local 217 Taproom & Kitchen",
        "amenity": "restaurant",
        "internet_access": "wlan",
        "internet_access:fee": "no",
        "name": "The Local 217",
        "old_name": "Cafe 217"
      }
    },
    {
      "type": "node",
      "id": 1391611963,
      "lat": 42.6563391,
      "lon": -73.7635757,
      "tags": {
        "addr:city": "Albany",
        "amenity": "restaurant",
        "cuisine": "burger",
        "name": "Herbie's Burgers",
        "old_name": "=Lark Street Deli & Catering"
      }
    },
    {
      "type": "node",
      "id": 1391614590,
      "lat": 42.655168,
      "lon": -73.7608847,
      "tags": {
        "addr:city": "Albany",
        "addr:housenumber": "144",
        "addr:state": "NY",
        "addr:street": "Washington Avenue",
        "amenity": "fast_food",
        "cuisine": "juice;sandwich",
        "name": "Abo's Coney Island",
        "old_name": "El Mariachi Mexican Restaurant;Jack's Diner II;Blue Flower Thai",
        "shop": "deli",
        "was:amenity": "restaurant"
      }
    },
    {
      "type": "node",
      "id": 1391632997,
      "lat": 42.6400325,
      "lon": -73.7841579,
      "tags": {
        "amenity": "restaurant",
        "diet:halal": "yes",
        "name": "Mr Halal",
        "was:name": "Pizzalo"
      }
    },
    {
      "type": "node",
      "id": 1391633062,
      "lat": 42.6399299,
      "lon": -73.7845441,
      "tags": {
        "name": "Delaware News",
        "shop": "convenience"
      }
    },
    {
      "type": "node",
      "id": 1391633081,
      "lat": 42.6419108,
      "lon": -73.7791985,
      "tags": {
        "name": "Prinzos Bakery",
        "shop": "bakery",
        "start_date": "1960"
      }
    },
    {
      "type": "node",
      "id": 1391633122,
      "lat": 42.6369465,
      "lon": -73.7836804,
      "tags": {
        "name": "Chris Deli & Grocery",
        "shop": "convenience"
      }
    },
    {
      "type": "node",
      "id": 1400582166,
      "lat": 42.661227,
      "lon": -73.745051,
      "tags": {
        "addr:city": "Albany",
        "addr:housenumber": "904",
        "addr:postcode": "12207-1316",
        "addr:state": "NY",
        "addr:street": "Broadway",
        "amenity": "restaurant",
        "name": "The Copper Crow",
        "old_name": "Graney's Stout",
        "phone": "+1-518-818-0170",
        "website": "https://www.coppercrowalbany.com/"
      }
    },
    {
      "type": "node",
      "id": 1400582171,
      "lat": 42.6540939,
      "lon": -73.7504154,
      "tags": {
        "addr:city": "Albany",
        "addr:housename": "The French Press Cafe & Creperie",
        "addr:housenumber": "5",
        "addr:postcode": "12207",
        "addr:street": "Clinton Square",
        "amenity": "cafe",
        "cuisine": "french",
        "internet_access": "yes",
        "name": "The French Press Cafe & Creperie",
        "opening_hours": "07:00-18:00"
      }
    },
    {
      "type": "node",
      "id": 1404738508,
      "lat": 42.6595317,
      "lon": -73.7834723,
      "tags": {
        "name": "Maple Leaf Market",
        "shop": "convenience"
      }
    },
    {
      "type": "node",
      "id": 1404738515,
      "lat": 42.6603223,
      "lon": -73.7825399,
      "tags": {
        "amenity": "restaurant",
        "name": "Elhariri Hot Food",
        "old_name": "Bogie's",
        "was:amenity": "pub"
      }
    },
    {
      "type": "node",
      "id": 1404738521,
      "lat": 42.6593265,
      "lon": -73.7836547,
      "tags": {
        "name": "Capital Q Smokehouse",
        "shop": "butcher"
      }
    },
    {
      "type": "node",
      "id": 1404738522,
      "lat": 42.6618512,
      "lon": -73.7805541,
      "tags": {
        "name": "Pine Hills Market",
        "shop": "convenience"
      }
    },
    {
      "type": "node",
      "id": 1404738536,
      "lat": 42.6610572,
      "lon": -73.781868,
      "tags": {
        "amenity": "fast_food",
        "cuisine": "pizza",
        "name": "Trios",
        "shop": "convenience"
      }
    },
    {
      "type": "node",
      "id": 1404738540,
      "lat": 42.6605985,
      "lon": -73.7822633,
      "tags": {
        "addr:city": "Albany",
        "addr:housenumber": "846",
        "addr:postcode": "12208",
        "addr:state": "NY",
        "addr:street": "Madison Avenue",
        "amenity": "restaurant",
        "cuisine": "pizza",
        "name": "Madison's Pizza",
        "opening_hours": "Su-We 10:00-00:00; Th 10:00-01:00; Fr-Sa 10:00-03:00",
        "phone": "+1-518-437-0001",
        "website": "http://www.madisonspizza.com/",
        "website:menu": "http://madisonspizza.com/wp-content/uploads/2015/06/madisons-pizza-5-19-rdcd.pdf"
      }
    },
    {
      "type": "node",
      "id": 1404738541,
      "lat": 42.6609178,
      "lon": -73.7821535,
      "tags": {
        "addr:city": "Albany",
        "addr:housenumber": "849",
        "addr:postcode": "12208",
        "addr:state": "NY",
        "addr:street": "Madison Avenue",
        "addr:unit": "3321",
        "air_conditioning": "yes",
        "name": "Supreme Wash Laundromat",
        "old_name": "Sadie Klutz",
        "opening_hours": "Mo-Su 06:00-21:00",
        "phone": "+1-518-992-2128",
        "self_service": "yes",
        "shop": "laundry",
        "was:amenity": "bar",
        "wheelchair": "yes"
      }
    },
    {
      "type": "node",
      "id": 1404738555,
      "lat": 42.6613112,
      "lon": -73.7828243,
      "tags": {
        "addr:housenumber": "869",
        "addr:street": "Madison Avenue",
        "amenity": "pub",
        "name": "The Pub",
        "old_name": "The Pub;Partridge Pub",
        "opening_hours": "Tu-Sa 20:00-02:00",
        "phone": "+1-518-621-7190"
      }
    },
    {
      "type": "node",
      "id": 1404738556,
      "lat": 42.6610489,
      "lon": -73.7830693,
      "tags": {
        "name": "Madison Mart",
        "shop": "convenience"
      }
    },
    {
      "type": "node",
      "id": 1404742743,
      "lat": 42.6614987,
      "lon": -73.7774273,
      "tags": {
        "addr:city": "Albany",
        "addr:housenumber": "210",
        "addr:postcode": "12203",
        "addr:state": "NY",
        "addr:street": "Quail Street",
        "name": "Sabatino's Liquor",
        "nysgissam:nysaddresspointid": "ALBA103306",
        "shop": "alcohol"
      }
    },
    {
      "type": "node",
      "id": 1404742758,
      "lat": 42.663007,
      "lon": -73.7758583,
      "tags": {
        "addr:city": "Albany",
        "addr:flats": "1-2",
        "addr:housenumber": "160",
        "addr:postcode": "12203",
        "addr:state": "NY",
        "addr:street": "Quail Street",
        "amenity": "restaurant",
        "cuisine": "spanish",
        "name": "Mr. Pio Pio",
        "nysgissam:nysaddresspointid": "ALBA117827;ALBA117744;ALBA018071"
      }
    },
    {
      "type": "node",
      "id": 1404744862,
      "lat": 42.6532194,
      "lon": -73.7874792,
      "tags": {
        "addr:city": "Albany",
        "addr:housenumber": "267",
        "addr:postcode": "12208",
        "addr:state": "NY",
        "addr:street": "New Scotland Avenue",
        "amenity": "fast_food",
        "brand": "Domino's",
        "brand:wikidata": "Q839466",
        "cuisine": "pizza",
        "name": "Domino's",
        "opening_hours": "Mo-Th 10:00-01:00; Fr-Sa 10:00-02:00; Su 10:00-01:00",
        "phone": "+1 518-438-3030",
        "ref": "3303",
        "takeaway": "yes",
        "website": "https://pizza.dominos.com/new-york/albany/267-new-scotland-ave"
      }
    },
    {
      "type": "node",
      "id": 1404744864,
      "lat": 42.6397958,
      "lon": -73.7870558,
      "tags": {
        "addr:city": "Albany",
        "addr:housenumber": "493",
        "addr:postcode": "12209",
        "addr:street": "Delaware Avenue",
        "brand": "Save-A-Lot",
        "brand:wikidata": "Q7427972",
        "name": "Save-A-Lot",
        "shop": "supermarket"
      }
    },
    {
      "type": "node",
      "id": 1404744870,
      "lat": 42.639681,
      "lon": -73.785125,
      "tags": {
        "addr:city": "Albany",
        "addr:housenumber": "466",
        "addr:postcode": "12209-1429",
        "addr:state": "NY",
        "addr:street": "Delaware Avenue",
        "amenity": "restaurant",
        "cuisine": "chinese",
        "name": "New No. 1 Chinese Restaurant",
        "phone": "+1-518-465-6496"
      }
    },
    {
      "type": "node",
      "id": 1404744882,
      "lat": 42.6401707,
      "lon": -73.7858434,
      "tags": {
        "amenity": "fast_food",
        "cuisine": "sandwich",
        "name": "Mr Subb"
      }
    },
    {
      "type": "node",
      "id": 1404744883,
      "lat": 42.6414236,
      "lon": -73.7804094,
      "tags": {
        "amenity": "restaurant",
        "cuisine": "thai",
        "name": "Sweet Basil",
        "old_name": "Kumo Sushi & Grill",
        "was:cuisine": "japanese"
      }
    },
    {
      "type": "node",
      "id": 1404744884,
      "lat": 42.639934,
      "lon": -73.7866162,
      "tags": {
        "addr:city": "Albany",
        "addr:housenumber": "485",
        "addr:postcode": "12209",
        "addr:street": "Delaware Avenue",
        "brand": "Advance Auto Parts",
        "brand:wikidata": "Q4686051",
        "name": "Advance Auto Parts",
        "shop": "car_parts",
        "website": "https://stores.advanceautoparts.com/ny/albany/485-delaware-ave"
      }
    },
    {
      "type": "node",
      "id": 1404775795,
      "lat": 42.6524523,
      "lon": -73.7506778,
      "tags": {
        "addr:city": "Albany",
        "name": "Food Near Me",
        "old_name": "Van Dyk Store",
        "shop": "convenience"
      }
    },
    {
      "type": "node",
      "id": 1404775799,
      "lat": 42.651833,
      "lon": -73.751547,
      "tags": {
        "addr:city": "Albany",
        "addr:housenumber": "1",
        "addr:postcode": "12207",
        "addr:state": "NY",
        "addr:street": "Steuben Street",
        "amenity": "restaurant",
        "cuisine": "breakfast",
        "name": "Skinny Pancake",
        "old_name": "Pearl St Pub",
        "phone": "+1-518-512-0182",
        "website": "https://skinnypancake.com/locations/albany/"
      }
    },
    {
      "type": "node",
      "id": 1404775802,
      "lat": 42.6494774,
      "lon": -73.7509029,
      "tags": {
        "addr:city": "Albany",
        "amenity": "restaurant",
        "cuisine": "indian",
        "name": "Shalimar"
      }
    },
    {
      "type": "node",
      "id": 1404775808,
      "lat": 42.6502113,
      "lon": -73.7509943,
      "tags": {
        "addr:city": "Albany",
        "amenity": "restaurant",
        "name": "Lunch"
      }
    },
    {
      "type": "node",
      "id": 1404775814,
      "lat": 42.6525391,
      "lon": -73.7510426,
      "tags": {
        "addr:city": "Albany",
        "addr:housenumber": "90",
        "addr:postcode": "12207",
        "addr:state": "NY",
        "addr:street": "North Pearl Street",
        "amenity": "restaurant",
        "cuisine": "latin_american;empanada",
        "name": "Viva Empanadas",
        "old_name": "The Bishop;The Merry Monk",
        "website": "https://www.vivaempanadas.com/albanymenu"
      }
    },
    {
      "type": "node",
      "id": 1404775818,
      "lat": 42.6520341,
      "lon": -73.7504472,
      "tags": {
        "amenity": "restaurant",
        "cuisine": "pizza",
        "name": "Lidia's Pizza"
      }
    },
    {
      "type": "node",
      "id": 1404775841,
      "lat": 42.6521174,
      "lon": -73.7509502,
      "tags": {
        "name": "Lodge's",
        "shop": "clothes"
      }
    },
    {
      "type": "node",
      "id": 1404775862,
      "lat": 42.6507439,
      "lon": -73.7517668,
      "tags": {
        "addr:city": "Albany",
        "amenity": "restaurant",
        "cuisine": "asian",
        "name": "Capitol House"
      }
    },
    {
      "type": "node",
      "id": 1404775865,
      "lat": 42.6546629,
      "lon": -73.7729317,
      "tags": {
        "name": "Lombardo's Grocery",
        "old_name": "Capital Mart",
        "shop": "convenience"
      }
    },
    {
      "type": "node",
      "id": 1404775870,
      "lat": 42.6520553,
      "lon": -73.7504911,
      "tags": {
        "amenity": "restaurant",
        "name": "Miranda's Deli"
      }
    },
    {
      "type": "node",
      "id": 1404775882,
      "lat": 42.6366215,
      "lon": -73.7813688,
      "tags": {
        "addr:city": "Albany",
        "addr:housenumber": "125",
        "addr:postcode": "12209",
        "addr:state": "NY",
        "addr:street": "Southern Boulevard",
        "amenity": "restaurant",
        "cuisine": "italian;american",
        "name": "The Boulevard",
        "note": "new restaurant opened inside of old Sam's Italian Fall 2025",
        "was:name": "Sam's Italian American Restaurant"
      }
    },
    {
      "type": "node",
      "id": 1404775885,
      "lat": 42.6519078,
      "lon": -73.7509997,
      "tags": {
        "addr:city": "Albany",
        "addr:housenumber": "69",
        "addr:state": "NY",
        "addr:street": "North Pearl Street",
        "amenity": "bar",
        "leisure": "axe_throwing",
        "name": "Far Shot",
        "note": "axe throwing venue with bar",
        "old_name": "Figure R",
        "website": "https://www.farshot.net/axe-throwing-albany/?utm_term=far%20shot&utm_campaign=Albany+Brand+11/12&utm_source=adwords&utm_medium=ppc&hsa_acc=3468935988&hsa_cam=8080806705&hsa_grp=81689045417&hsa_ad=421251021574&hsa_src=g&hsa_tgt=kwd-342043276762&hsa_kw=far%"
      }
    },
    {
      "type": "node",
      "id": 1404775893,
      "lat": 42.6524405,
      "lon": -73.751461,
      "tags": {
        "addr:city": "Albany",
        "amenity": "restaurant",
        "cuisine": "mexican",
        "name": "Burrito Joe's"
      }
    },
    {
      "type": "node",
      "id": 1404775894,
      "lat": 42.650665,
      "lon": -73.7518258,
      "tags": {
        "amenity": "restaurant",
        "cuisine": "pizza",
        "name": "Jonathan's Pizza"
      }
    },
    {
      "type": "node",
      "id": 1404775896,
      "lat": 42.65001,
      "lon": -73.752314,
      "tags": {
        "addr:city": "Albany",
        "name": "Cravings",
        "shop": "confectionery"
      }
    },
    {
      "type": "node",
      "id": 1404776380,
      "lat": 42.649651,
      "lon": -73.754905,
      "tags": {
        "addr:housenumber": "42",
        "addr:street": "Howard Street",
        "amenity": "bar",
        "name": "City Beer Hall",
        "old_name": "Ballingers"
      }
    },
    {
      "type": "node",
      "id": 1404776706,
      "lat": 42.6503097,
      "lon": -73.7565409,
      "tags": {
        "addr:city": "Albany",
        "addr:housenumber": "42",
        "addr:state": "NY",
        "addr:street": "Eagle Street",
        "amenity": "pub",
        "name": "War Room Tavern",
        "was:name": "Public House 42;Capitol Hill Deli",
        "website": "https://albanywarroom.com/"
      }
    },
    {
      "type": "node",
      "id": 1407117221,
      "lat": 42.6523299,
      "lon": -73.776344,
      "tags": {
        "amenity": "bank",
        "brand": "KeyBank",
        "brand:wikidata": "Q1740314",
        "name": "KeyBank"
      }
    },
    {
      "type": "node",
      "id": 1408893552,
      "lat": 42.664722,
      "lon": -73.772147,
      "tags": {
        "addr:city": "Albany",
        "addr:housenumber": "307",
        "addr:postcode": "12206-2508",
        "addr:state": "NY",
        "addr:street": "Central Avenue",
        "amenity": "restaurant",
        "cuisine": "vietnamese",
        "name": "Van's Vietnamese",
        "phone": "+1-518-436-1868"
      }
    },
    {
      "type": "node",
      "id": 1408924089,
      "lat": 42.646166,
      "lon": -73.7567178,
      "tags": {
        "addr:city": "Albany",
        "name": "Diana's Wine & Spirits",
        "shop": "alcohol"
      }
    },
    {
      "type": "node",
      "id": 1408924093,
      "lat": 42.6451796,
      "lon": -73.7552212,
      "tags": {
        "addr:city": "Albany",
        "name": "Young, Fresh & Fly, Inc.",
        "shop": "clothes"
      }
    },
    {
      "type": "node",
      "id": 1469590183,
      "lat": 42.658244,
      "lon": -73.765347,
      "tags": {
        "addr:city": "Albany",
        "addr:country": "US",
        "addr:floor": "Floor 1;Floor 3",
        "addr:housenumber": "40",
        "addr:postcode": "12206",
        "addr:state": "NY",
        "addr:street": "Central Avenue",
        "amenity": "restaurant",
        "cuisine": "napalese",
        "name": "Mystic Momo",
        "nysgissam:nysaddresspointid": "ALBA102016;ALBA150314;ALBA150404",
        "old_name": "Trustco",
        "phone": "+1-518-621-1003",
        "was:amenity": "bank",
        "website": "http://www.mysticmomo.com/"
      }
    },
    {
      "type": "node",
      "id": 1482582424,
      "lat": 42.6629557,
      "lon": -73.7794058,
      "tags": {
        "addr:city": "Albany",
        "addr:housenumber": "230",
        "addr:postcode": "12203",
        "addr:state": "NY",
        "addr:street": "Ontario Street",
        "name": "Paul's Garage",
        "nysgissam:nysaddresspointid": "ALBA018157",
        "shop": "car_repair"
      }
    },
    {
      "type": "node",
      "id": 2145039064,
      "lat": 42.6536048,
      "lon": -73.7732542,
      "tags": {
        "amenity": "bank",
        "atm": "yes",
        "drive_through": "yes",
        "name": "Broadview Federal Credit Union",
        "old_name": "Sefcu",
        "opening_hours": "Mo-Fr 8:30-17:00; Sa 9:00-13:00",
        "operator": "Broadview Federal Credit Union"
      }
    },
    {
      "type": "node",
      "id": 2151963529,
      "lat": 42.6643315,
      "lon": -73.7722819,
      "tags": {
        "addr:city": "Albany",
        "addr:housenumber": "284",
        "addr:postcode": "12206",
        "addr:state": "NY",
        "addr:street": "Central Avenue",
        "diet:halal": "yes",
        "name": "The Medina Halal Market",
        "nysgissam:nysaddresspointid": "ALBA102424",
        "shop": "butcher"
      }
    },
    {
      "type": "node",
      "id": 2152791712,
      "lat": 42.6529822,
      "lon": -73.7683016,
      "tags": {
        "addr:housename": "457",
        "addr:postcode": "12210",
        "addr:street": "Madison Ave., Albany,NY",
        "amenity": "restaurant",
        "cuisine": "japanese",
        "name": "Shogun Japanese Restaurant",
        "website": "https://www.shogunalbany.com/"
      }
    },
    {
      "type": "node",
      "id": 2875328819,
      "lat": 42.6520974,
      "lon": -73.750674,
      "tags": {
        "addr:city": "Albany",
        "addr:country": "US",
        "addr:housenumber": "54",
        "addr:postcode": "12207",
        "addr:state": "NY",
        "addr:street": "Columbia Street",
        "check_date": "2014-12-23",
        "name": "The Enchanted Florist",
        "opening_hours": "Mo-Fr 09:00-18:00; Sa 10:00-14:00",
        "phone": "+1-518-813-4990",
        "shop": "florist",
        "website": "https://www.enchantedfloristalbany.com/"
      }
    },
    {
      "type": "node",
      "id": 2996291113,
      "lat": 42.6484314,
      "lon": -73.7510798,
      "tags": {
        "addr:city": "Albany",
        "addr:housenumber": "418",
        "addr:postcode": "12207",
        "addr:street": "Broadway",
        "contact:website": "http://carmalink.com",
        "description": "Fleet Analysis and Monitoring",
        "name": "Carma Systems",
        "office": "yes",
        "opening_hours": "09:00-18:00",
        "phone": "+1-518-618-4649",
        "website": "http://carmalink.com"
      }
    },
    {
      "type": "node",
      "id": 3008692794,
      "lat": 42.6409413,
      "lon": -73.741373,
      "tags": {
        "addr:city": "Rensselaer",
        "addr:country": "US",
        "addr:housenumber": "525",
        "addr:postcode": "12144",
        "addr:state": "NY",
        "addr:street": "East Street",
        "amenity": "cafe",
        "indoor_seating": "yes",
        "name": "Coffee Beanery",
        "note": "inside train station",
        "opening_hours": "Mo-Su 05:30-19:30",
        "outdoor_seating": "no"
      }
    },
    {
      "type": "node",
      "id": 3044125507,
      "lat": 42.6603592,
      "lon": -73.7413647,
      "tags": {
        "addr:city": "Albany",
        "addr:housenumber": "10",
        "addr:street": "Erie Blvd",
        "amenity": "car_rental",
        "brand": "Ryder",
        "brand:wikidata": "Q2178198",
        "name": "Ryder",
        "phone": "+1-518-436-9715",
        "shop": "rental"
      }
    },
    {
      "type": "node",
      "id": 3328374012,
      "lat": 42.658881,
      "lon": -73.766013,
      "tags": {
        "addr:city": "Albany",
        "addr:housenumber": "66",
        "addr:postcode": "12206",
        "addr:state": "NY",
        "addr:street": "Central Avenue",
        "amenity": "cafe",
        "cuisine": "american",
        "name": "The Breakfast Spot",
        "old_name": "Portelli's Joe N Dough"
      }
    },
    {
      "type": "node",
      "id": 3459827236,
      "lat": 42.6560542,
      "lon": -73.7642117,
      "tags": {
        "addr:city": "Albany",
        "addr:housenumber": "205",
        "addr:postcode": "12210",
        "addr:state": "NY",
        "addr:street": "Lark Street",
        "amenity": "restaurant",
        "diet:vegan": "yes",
        "diet:vegetarian": "yes",
        "name": "Bar Vegan Tapas and Cocktail Bar",
        "old_name": "LAX Restaurant and Lounge"
      }
    },
    {
      "type": "node",
      "id": 3803717768,
      "lat": 42.6445281,
      "lon": -73.7599857,
      "tags": {
        "amenity": "restaurant",
        "name": "Betty Boop's Diner"
      }
    },
    {
      "type": "node",
      "id": 4100261141,
      "lat": 42.6284661,
      "lon": -73.7411727,
      "tags": {
        "addr:city": "Rensselaer",
        "addr:housenumber": "1",
        "addr:postcode": "12144",
        "addr:state": "NY",
        "addr:street": "University Place",
        "amenity": "cafe",
        "cuisine": "wrap;sandwich",
        "internet_access": "yes",
        "name": "P.O.D",
        "outdoor_seating": "yes"
      }
    },
    {
      "type": "node",
      "id": 4315367122,
      "lat": 42.6551048,
      "lon": -73.7608293,
      "tags": {
        "addr:city": "Albany",
        "addr:housenumber": "142",
        "addr:postcode": "12210",
        "addr:state": "NY",
        "addr:street": "Washington Avenue",
        "addr:unit": "1",
        "amenity": "restaurant",
        "name": "Pinto & Hobbs Tavern",
        "phone": "+1 518 5125800",
        "website": "https://www.pintoandhobbstavern.com/"
      }
    },
    {
      "type": "node",
      "id": 4392944288,
      "lat": 42.6578295,
      "lon": -73.7474918,
      "tags": {
        "name": "Wine & Spirits",
        "shop": "alcohol"
      }
    },
    {
      "type": "node",
      "id": 4396507531,
      "lat": 42.6587591,
      "lon": -73.7491506,
      "tags": {
        "name": "Ida Yarbrough Convenience Store",
        "shop": "convenience"
      }
    },
    {
      "type": "node",
      "id": 4631402909,
      "lat": 42.6546443,
      "lon": -73.7588891,
      "tags": {
        "addr:city": "Albany",
        "addr:housenumber": "99",
        "addr:postcode": "12210",
        "addr:state": "NY",
        "addr:street": "Washington Avenue",
        "amenity": "restaurant",
        "cuisine": "american",
        "name": "Better Bite",
        "phone": "+1-518-694-4400",
        "takeaway": "yes",
        "website": "http://abetterbitealbany.com"
      }
    },
    {
      "type": "node",
      "id": 4640553973,
      "lat": 42.6534864,
      "lon": -73.7739409,
      "tags": {
        "amenity": "bank",
        "brand": "Bank of America",
        "brand:wikidata": "Q487907",
        "name": "Bank of America",
        "website": "https://locators.bankofamerica.com/ny/albany/financial-centers-albany-16812.html"
      }
    },
    {
      "type": "node",
      "id": 4640586224,
      "lat": 42.6538898,
      "lon": -73.7760362,
      "tags": {
        "amenity": "cafe",
        "internet_access": "yes",
        "internet_access:fee": "no",
        "name": "Choices Cafe",
        "outdoor_seating": "no",
        "smoking": "no"
      }
    },
    {
      "type": "node",
      "id": 4640586225,
      "lat": 42.6537954,
      "lon": -73.7759202,
      "tags": {
        "addr:city": "Albany",
        "addr:housenumber": "43",
        "addr:postcode": "12208",
        "addr:state": "NY",
        "addr:street": "New Scotland Avenue",
        "alt_name": "Dunkin' Donuts",
        "amenity": "fast_food",
        "brand": "Dunkin'",
        "brand:wikidata": "Q847743",
        "contact:website": "https://locations.dunkindonuts.com/en/ny/albany/43-new-scotland-ave/346688",
        "cuisine": "donut;coffee_shop",
        "drive_through": "no",
        "name": "Dunkin'",
        "opening_hours": "24/7",
        "phone": "+1 518-262-7400",
        "ref": "346688",
        "takeaway": "yes",
        "website": "https://locations.dunkindonuts.com/en/ny/albany/43-new-scotland-ave/346688"
      }
    },
    {
      "type": "node",
      "id": 4640586228,
      "lat": 42.6529694,
      "lon": -73.77516,
      "tags": {
        "amenity": "cafe",
        "cuisine": "coffee_shop",
        "name": "Concourse Cafe"
      }
    },
    {
      "type": "node",
      "id": 4640586229,
      "lat": 42.6536578,
      "lon": -73.7759446,
      "tags": {
        "addr:city": "Albany",
        "addr:housenumber": "43",
        "addr:postcode": "12208",
        "addr:state": "NY",
        "addr:street": "New Scotland Avenue",
        "amenity": "fast_food",
        "brand": "Subway",
        "brand:wikidata": "Q244457",
        "cuisine": "sandwich",
        "name": "Subway",
        "opening_hours": "10:00-23:00",
        "phone": "+1 518-262-0284",
        "takeaway": "yes",
        "website": "https://restaurants.subway.com/united-states/ny/albany/albany-medical-center"
      }
    },
    {
      "type": "node",
      "id": 4640586230,
      "lat": 42.6537345,
      "lon": -73.7766046,
      "tags": {
        "amenity": "pharmacy",
        "healthcare": "pharmacy",
        "name": "Outpatient Pharmacy",
        "operator": "Albany Medical Hospital"
      }
    },
    {
      "type": "node",
      "id": 4684558184,
      "lat": 42.6484409,
      "lon": -73.750986,
      "tags": {
        "name": "Broadway Plaza Liquor",
        "shop": "alcohol"
      }
    },
    {
      "type": "node",
      "id": 4684746860,
      "lat": 42.6515599,
      "lon": -73.7799172,
      "tags": {
        "name": "David Axelrod Institute of Public Health",
        "office": "government"
      }
    },
    {
      "type": "node",
      "id": 4992760809,
      "lat": 42.6412091,
      "lon": -73.7411785,
      "tags": {
        "level": "1",
        "name": "Frair Tuck",
        "shop": "convenience"
      }
    },
    {
      "type": "node",
      "id": 5309387950,
      "lat": 42.6620235,
      "lon": -73.7638665,
      "tags": {
        "amenity": "bank",
        "name": "Broadview Federal Credit Union",
        "old_name": "SEFCU",
        "source": "Bing"
      }
    },
    {
      "type": "node",
      "id": 5309387953,
      "lat": 42.6576588,
      "lon": -73.7586823,
      "tags": {
        "amenity": "restaurant",
        "name": "The Hungry Hollow"
      }
    },
    {
      "type": "node",
      "id": 5335307543,
      "lat": 42.6573598,
      "lon": -73.7550282,
      "tags": {
        "name": "One Star Market",
        "shop": "convenience",
        "source": "Bing"
      }
    },
    {
      "type": "node",
      "id": 5537143224,
      "lat": 42.6619296,
      "lon": -73.7768853,
      "tags": {
        "name": "Smokers Choice",
        "shop": "alcohol"
      }
    },
    {
      "type": "node",
      "id": 5537143225,
      "lat": 42.6606258,
      "lon": -73.7783418,
      "tags": {
        "deli": "yes",
        "name": "All Star Food Mart",
        "old_name": "Tony's",
        "shop": "convenience",
        "was:amenity": "restaurant"
      }
    },
    {
      "type": "node",
      "id": 5537143227,
      "lat": 42.663829,
      "lon": -73.775901,
      "tags": {
        "name": "Mary Jane Books",
        "shop": "books",
        "website": "https://www.maryjanebooks.com/"
      }
    },
    {
      "type": "node",
      "id": 5537143228,
      "lat": 42.6547378,
      "lon": -73.7727467,
      "tags": {
        "name": "Lombardo's Auto Center",
        "shop": "car_repair"
      }
    },
    {
      "type": "node",
      "id": 5537143229,
      "lat": 42.6618921,
      "lon": -73.7767646,
      "tags": {
        "shop": "laundry"
      }
    },
    {
      "type": "node",
      "id": 5537143230,
      "lat": 42.6620756,
      "lon": -73.7772313,
      "tags": {
        "amenity": "restaurant",
        "cuisine": "italian",
        "name": "Cusato's Eatery",
        "old_name": "Crave Burgers"
      }
    },
    {
      "type": "node",
      "id": 5537143231,
      "lat": 42.6619099,
      "lon": -73.7768156,
      "tags": {
        "amenity": "restaurant",
        "cuisine": "pizza",
        "name": "D'Carilto Pizza"
      }
    },
    {
      "type": "node",
      "id": 5537143233,
      "lat": 42.661975,
      "lon": -73.7769336,
      "tags": {
        "amenity": "restaurant",
        "name": "Munchies"
      }
    },
    {
      "type": "node",
      "id": 5537143234,
      "lat": 42.6649906,
      "lon": -73.7768745,
      "tags": {
        "shop": "convenience"
      }
    },
    {
      "type": "node",
      "id": 5541404718,
      "lat": 42.6581223,
      "lon": -73.7486739,
      "tags": {
        "addr:housenumber": "75",
        "addr:street": "Livingston Avenue",
        "alt_name": "ADCo Bar & Bottle Shop",
        "amenity": "bar",
        "food": "yes",
        "name": "Albany Distilling Company Bar & Bottle Shop",
        "operator": "Albany Distilling Company",
        "shop": "alcohol",
        "website": "https://adco.bar/"
      }
    },
    {
      "type": "node",
      "id": 5541411644,
      "lat": 42.6541518,
      "lon": -73.7658038,
      "tags": {
        "name": "Lark News Groceries",
        "shop": "convenience"
      }
    },
    {
      "type": "node",
      "id": 5541411645,
      "lat": 42.6531196,
      "lon": -73.7685665,
      "tags": {
        "addr:city": "Albany",
        "addr:housenumber": "467",
        "addr:postcode": "12210",
        "addr:state": "NY",
        "addr:street": "Madison Avenue",
        "amenity": "ice_cream",
        "brand": "Ben & Jerry's",
        "brand:wikidata": "Q816412",
        "comment": "moved here from Lark St location",
        "cuisine": "ice_cream",
        "name": "Ben & Jerry's",
        "old_name": "Little Moon Tibetan Gift Shop",
        "opening_hours": "PH off",
        "outdoor_seating": "yes",
        "phone": "+1-518-599-5508",
        "website": "https://www.benjerry.com/madisonave",
        "website:menu": "https://www.benjerry.com/madisonave/menu"
      }
    },
    {
      "type": "node",
      "id": 5544057781,
      "lat": 42.6651723,
      "lon": -73.7735415,
      "tags": {
        "name": "Finnigan's",
        "shop": "convenience"
      }
    },
    {
      "type": "node",
      "id": 5549337610,
      "lat": 42.6559762,
      "lon": -73.7622291,
      "tags": {
        "shop": "hairdresser"
      }
    },
    {
      "type": "node",
      "id": 5560800028,
      "lat": 42.6642527,
      "lon": -73.7794896,
      "tags": {
        "amenity": "cafe",
        "name": "Brubacher Caf"
      }
    },
    {
      "type": "node",
      "id": 5567894351,
      "lat": 42.6759831,
      "lon": -73.7486603,
      "tags": {
        "addr:housenumber": "359",
        "addr:street": "Northern Boulevard",
        "amenity": "restaurant",
        "name": "Cafe Madison"
      }
    },
    {
      "type": "node",
      "id": 5567894369,
      "lat": 42.675793,
      "lon": -73.748881,
      "tags": {
        "addr:city": "Albany",
        "addr:housenumber": "360",
        "addr:postcode": "12204-1029",
        "addr:state": "NY",
        "addr:street": "Northern Boulevard",
        "alt_name": "Ships Pub",
        "amenity": "bar",
        "food": "yes",
        "name": "Ship's Pub",
        "phone": "+1-518-694-3638",
        "website": "https://www.shipspub.com/"
      }
    },
    {
      "type": "node",
      "id": 5620531953,
      "lat": 42.6641254,
      "lon": -73.754266,
      "tags": {
        "name": "KID Improvement District Headquarters",
        "office": "association"
      }
    },
    {
      "type": "node",
      "id": 5727576529,
      "lat": 42.6688916,
      "lon": -73.7785735,
      "tags": {
        "addr:city": "Albany",
        "addr:housenumber": "484",
        "addr:postcode": "12206",
        "addr:state": "NY",
        "addr:street": "Central Avenue",
        "name": "Autobahn Centre",
        "opening_hours": "Mo-Fr 09:00-18:00",
        "phone": "+1-518-689-3086",
        "shop": "car_repair",
        "website": "http://www.autobahncentre.com"
      }
    },
    {
      "type": "node",
      "id": 5819506590,
      "lat": 42.6538658,
      "lon": -73.7660628,
      "tags": {
        "addr:city": "Albany",
        "addr:housenumber": "351",
        "addr:postcode": "12210",
        "addr:state": "NY",
        "addr:street": "Hudson Avenue",
        "addr:unit": "1",
        "alt_name": "The Eleven",
        "amenity": "restaurant",
        "bar": "yes",
        "name": "The Eleven at Lark Hall",
        "note": "opened nov 2023",
        "old_name": "Lark Street Mercantile;Lark Street Flower Market",
        "was:shop": "clothes",
        "website": "https://larkhallalbany.com/the-eleven-at-lark-hall/"
      }
    },
    {
      "type": "node",
      "id": 5819520342,
      "lat": 42.6482624,
      "lon": -73.7510068,
      "tags": {
        "addr:housenumber": "412",
        "addr:street": "Broadway",
        "name": "The Vandy Thrift Shoppe",
        "old_name": "Olive & June Floral Company",
        "shop": "second_hand",
        "was:shop": "florist",
        "website": "https://www.vanderheyden.org/programs-and-services/the-vandy-thrift-shoppe/"
      }
    },
    {
      "type": "node",
      "id": 5819520343,
      "lat": 42.6484242,
      "lon": -73.7511865,
      "tags": {
        "name": "BEAHIVE Albany",
        "office": "coworking_space"
      }
    },
    {
      "type": "node",
      "id": 5819520344,
      "lat": 42.6482763,
      "lon": -73.7509183,
      "tags": {
        "addr:housenumber": "412",
        "addr:street": "Broadway",
        "name": "Fort Orange General Store",
        "shop": "gift",
        "website": "https://www.fortorangegeneralstore.com/"
      }
    },
    {
      "type": "node",
      "id": 5892144292,
      "lat": 42.6485111,
      "lon": -73.7510165,
      "tags": {
        "addr:city": "Albany",
        "addr:housenumber": "420",
        "addr:postcode": "12207",
        "addr:state": "NY",
        "addr:street": "Broadway",
        "name": "Coulson's News & Deli",
        "opening_hours": "Mo-We 07:30-18:00; Th,Fr 07:30-19:30; Sa 09:00-17:00",
        "payment:american_express": "yes",
        "payment:cash": "yes",
        "payment:discover_card": "yes",
        "payment:mastercard": "yes",
        "payment:visa": "yes",
        "phone": "+1-518-449-7577",
        "shop": "convenience",
        "website": "https://www.coulsonsnewsdeli.com/"
      }
    },
    {
      "type": "node",
      "id": 5895139875,
      "lat": 42.6500646,
      "lon": -73.7510642,
      "tags": {
        "amenity": "coworking_space",
        "name": "CoLab",
        "office": "coworking_space",
        "website": "https://colabalb.com/"
      }
    },
    {
      "type": "node",
      "id": 5895155600,
      "lat": 42.6508897,
      "lon": -73.7555157,
      "tags": {
        "addr:city": "Albany",
        "addr:country": "US",
        "addr:housenumber": "144",
        "addr:postcode": "12207",
        "addr:state": "NY",
        "addr:street": "State Street",
        "alt_name": "Wellington's Bar & Lounge",
        "amenity": "restaurant",
        "bar": "yes",
        "cuisine": "american",
        "name": "Wellington's",
        "website": "https://wellingtonsalbany.com/"
      }
    },
    {
      "type": "node",
      "id": 5895155603,
      "lat": 42.6507299,
      "lon": -73.7551107,
      "tags": {
        "addr:city": "Albany",
        "amenity": "cafe",
        "name": "Motor Oil Coffee",
        "old_name": "Capitol Melts"
      }
    },
    {
      "type": "node",
      "id": 5895155604,
      "lat": 42.6511333,
      "lon": -73.7547057,
      "tags": {
        "addr:city": "Albany",
        "amenity": "restaurant",
        "name": "Ria's Bistro & Bakery"
      }
    },
    {
      "type": "node",
      "id": 6053123124,
      "lat": 42.6532938,
      "lon": -73.7885731,
      "tags": {
        "amenity": "doctors",
        "healthcare": "doctor",
        "healthcare:speciality": "ophthalmology",
        "name": "Sheehy Opticians"
      }
    },
    {
      "type": "node",
      "id": 6119849560,
      "lat": 42.6690394,
      "lon": -73.7784215,
      "tags": {
        "addr:city": "Albany",
        "addr:housenumber": "484",
        "addr:postcode": "12206",
        "addr:state": "NY",
        "addr:street": "Central Avenue",
        "name": "Organica",
        "phone": "+1 518 7295950",
        "shop": "garden_centre",
        "website": "https://www.organicagardensupply.com/"
      }
    },
    {
      "type": "node",
      "id": 6119849561,
      "lat": 42.6693413,
      "lon": -73.7780337,
      "tags": {
        "addr:city": "Albany",
        "addr:housenumber": "484",
        "addr:postcode": "12206",
        "addr:state": "NY",
        "addr:street": "Central Avenue",
        "brand": "Family Dollar",
        "brand:wikidata": "Q5433101",
        "name": "Family Dollar",
        "shop": "variety_store"
      }
    },
    {
      "type": "node",
      "id": 6120317239,
      "lat": 42.668962,
      "lon": -73.777032,
      "tags": {
        "addr:city": "Albany",
        "addr:housenumber": "471",
        "addr:postcode": "12206-2214",
        "addr:state": "NY",
        "addr:street": "Central Avenue",
        "amenity": "restaurant",
        "cuisine": "chinese",
        "name": "China Fish Fry",
        "phone": "+1 518 4380008",
        "website": "https://www.chinafishfry.com/"
      }
    },
    {
      "type": "node",
      "id": 6248618149,
      "lat": 42.6379638,
      "lon": -73.7464677,
      "tags": {
        "amenity": "bank",
        "brand": "KeyBank",
        "brand:wikidata": "Q1740314",
        "drive_through": "yes",
        "name": "KeyBank",
        "source": "Mapbox"
      }
    },
    {
      "type": "node",
      "id": 6248618176,
      "lat": 42.6400827,
      "lon": -73.743134,
      "tags": {
        "name": "NY State Office of Children & Family Services",
        "office": "government"
      }
    },
    {
      "type": "node",
      "id": 6735990126,
      "lat": 42.6511408,
      "lon": -73.7519986,
      "tags": {
        "amenity": "restaurant",
        "name": "Pearl Street Diner"
      }
    },
    {
      "type": "node",
      "id": 6735990127,
      "lat": 42.650135,
      "lon": -73.750813,
      "tags": {
        "addr:city": "Albany",
        "addr:housenumber": "488",
        "addr:postcode": "12207-2906",
        "addr:state": "NY",
        "addr:street": "Broadway",
        "amenity": "cafe",
        "cuisine": "coffee_shop",
        "name": "Stacks Espresso Bar",
        "phone": "+1-518-915-1000",
        "website": "https://www.stacksespresso.com/"
      }
    },
    {
      "type": "node",
      "id": 6735990128,
      "lat": 42.651989,
      "lon": -73.7510371,
      "tags": {
        "name": "Truman Jewelers",
        "shop": "jewelry"
      }
    },
    {
      "type": "node",
      "id": 6735990131,
      "lat": 42.6540418,
      "lon": -73.74853,
      "tags": {
        "addr:city": "Albany",
        "addr:housenumber": "1",
        "addr:postcode": "12207",
        "addr:state": "NY",
        "addr:street": "Quackenbush Square",
        "amenity": "restaurant",
        "bar": "yes",
        "name": "The Olde English Pub and Pantry",
        "old_name": "Enchaine Brasserie;Nicole's Bistro;Gasparys Quackenbush House",
        "website": "https://theoldeenglishny.com/"
      }
    },
    {
      "type": "node",
      "id": 6735990133,
      "lat": 42.6508144,
      "lon": -73.7517315,
      "tags": {
        "addr:city": "Albany",
        "addr:housenumber": "39",
        "addr:postcode": "12207",
        "addr:state": "NY",
        "addr:street": "North Pearl Street",
        "amenity": "bank",
        "atm": "yes",
        "brand": "Community Bank",
        "brand:wikidata": "Q5154635",
        "name": "Community Bank",
        "website": "https://cbna.com/locations/albany"
      }
    },
    {
      "type": "node",
      "id": 6735990134,
      "lat": 42.6503675,
      "lon": -73.7520836,
      "tags": {
        "brand": "Cricket Wireless",
        "brand:wikidata": "Q5184987",
        "name": "Cricket Wireless",
        "shop": "mobile_phone",
        "short_name": "Cricket"
      }
    },
    {
      "type": "node",
      "id": 6736029892,
      "lat": 42.6483234,
      "lon": -73.7534737,
      "tags": {
        "amenity": "restaurant",
        "name": "Trinbago Caribbean Restaurant and Pho Queen"
      }
    },
    {
      "type": "node",
      "id": 6736029893,
      "lat": 42.6500122,
      "lon": -73.7536744,
      "tags": {
        "amenity": "bank",
        "name": "Broadview Federal Credit Union",
        "old_name": "SEFCU"
      }
    },
    {
      "type": "node",
      "id": 6736029894,
      "lat": 42.6483511,
      "lon": -73.7533557,
      "tags": {
        "amenity": "restaurant",
        "name": "Pakistani Grill"
      }
    },
    {
      "type": "node",
      "id": 6736029896,
      "lat": 42.648572,
      "lon": -73.7534436,
      "tags": {
        "amenity": "restaurant"
      }
    },
    {
      "type": "node",
      "id": 6736029897,
      "lat": 42.650988,
      "lon": -73.7533219,
      "tags": {
        "amenity": "cafe",
        "comment": "inside the hotel",
        "name": "Mr. B's Coffee"
      }
    },
    {
      "type": "node",
      "id": 6736029898,
      "lat": 42.6507315,
      "lon": -73.7534775,
      "tags": {
        "amenity": "bar",
        "comment": "inside hotel",
        "name": "Sessions Lounge"
      }
    },
    {
      "type": "node",
      "id": 6736029900,
      "lat": 42.6483694,
      "lon": -73.7534292,
      "tags": {
        "amenity": "restaurant",
        "name": "Bar-B-Que Tonight Express Indian"
      }
    },
    {
      "type": "node",
      "id": 6736029901,
      "lat": 42.6506196,
      "lon": -73.7535097,
      "tags": {
        "amenity": "restaurant",
        "comment": "inside the hotel",
        "name": "Charter Restaurant"
      }
    },
    {
      "type": "node",
      "id": 6736029902,
      "lat": 42.6500818,
      "lon": -73.7542787,
      "tags": {
        "addr:city": "Albany",
        "amenity": "cafe",
        "comment": "inside the building through lobby",
        "name": "PG's Cafe"
      }
    },
    {
      "type": "node",
      "id": 6736029903,
      "lat": 42.6482984,
      "lon": -73.7533701,
      "tags": {
        "amenity": "restaurant",
        "name": "Wicked Wings N Things"
      }
    },
    {
      "type": "node",
      "id": 6736042619,
      "lat": 42.6459691,
      "lon": -73.7559131,
      "tags": {
        "addr:city": "Albany",
        "name": "Madison Deli",
        "old_name": "Hoda Food & Grocery",
        "shop": "convenience"
      }
    },
    {
      "type": "node",
      "id": 6736042621,
      "lat": 42.6464268,
      "lon": -73.7566605,
      "tags": {
        "addr:city": "Albany",
        "amenity": "restaurant",
        "cuisine": "chinese",
        "name": "A Golden Dragon"
      }
    },
    {
      "type": "node",
      "id": 6736042626,
      "lat": 42.646935,
      "lon": -73.757807,
      "tags": {
        "addr:city": "Albany",
        "addr:housenumber": "54",
        "addr:postcode": "12207-1413",
        "addr:state": "NY",
        "addr:street": "Philip Street",
        "amenity": "bar",
        "name": "The Excelsior Pub",
        "old_name": "Calumet Grill",
        "phone": "+1-518-462-0690",
        "website": "https://excelsior.pub/"
      }
    },
    {
      "type": "node",
      "id": 6736045740,
      "lat": 42.6506108,
      "lon": -73.7658124,
      "tags": {
        "amenity": "bar",
        "name": "Palais Royale Grill",
        "sport": "billiards"
      }
    },
    {
      "type": "node",
      "id": 6736045764,
      "lat": 42.657447,
      "lon": -73.7648498,
      "tags": {
        "addr:city": "Albany",
        "addr:housenumber": "244",
        "addr:street": "Washington Avenue",
        "amenity": "restaurant",
        "cuisine": "jamaican",
        "name": "Hot Spot Jamaican"
      }
    },
    {
      "type": "node",
      "id": 6736046002,
      "lat": 42.6546406,
      "lon": -73.7590773,
      "tags": {
        "addr:city": "Albany",
        "addr:postcode": "12210",
        "addr:state": "NY",
        "alt_name": "Dunkin' Donuts",
        "amenity": "fast_food",
        "brand": "Dunkin'",
        "brand:wikidata": "Q847743",
        "contact:website": "https://locations.dunkindonuts.com/en/ny/albany/one-commerce-plaza/331817",
        "cuisine": "donut;coffee_shop",
        "drive_through": "no",
        "name": "Dunkin'",
        "opening_hours": "Mo-Fr 05:30-17:30; Sa-Su 00:00-24:00",
        "phone": "+1 518-426-1678",
        "ref": "331817",
        "takeaway": "yes",
        "website": "https://locations.dunkindonuts.com/en/ny/albany/one-commerce-plaza/331817"
      }
    },
    {
      "type": "node",
      "id": 6736046003,
      "lat": 42.655032,
      "lon": -73.759749,
      "tags": {
        "addr:city": "Albany",
        "addr:housenumber": "111",
        "addr:postcode": "12210-2201",
        "addr:state": "NY",
        "addr:street": "Washington Avenue",
        "amenity": "cafe",
        "name": "Cafe One Eleven",
        "phone": "+1-518-512-3302",
        "website": "https://www.cafeoneeleven.com/"
      }
    },
    {
      "type": "node",
      "id": 6736046004,
      "lat": 42.6557386,
      "lon": -73.7605821,
      "tags": {
        "addr:city": "Albany",
        "amenity": "cafe",
        "name": "Museum Cafe"
      }
    },
    {
      "type": "node",
      "id": 6736046005,
      "lat": 42.6548357,
      "lon": -73.7593721,
      "tags": {
        "amenity": "bank",
        "name": "Broadview Federal Credit Union",
        "old_name": "SEFCU"
      }
    },
    {
      "type": "node",
      "id": 6736046006,
      "lat": 42.65505,
      "lon": -73.76067,
      "tags": {
        "addr:city": "Albany",
        "addr:housenumber": "138",
        "addr:postcode": "12210",
        "addr:state": "NY",
        "addr:street": "Washington Avenue",
        "amenity": "cafe",
        "name": "The French Press Cafe & Creperie",
        "phone": "+1-518-463-1519"
      }
    },
    {
      "type": "node",
      "id": 6736046007,
      "lat": 42.6558417,
      "lon": -73.7604843,
      "tags": {
        "name": "Museum Shop",
        "shop": "gift"
      }
    },
    {
      "type": "node",
      "id": 6926572026,
      "lat": 42.6497463,
      "lon": -73.7530654,
      "tags": {
        "addr:city": "Albany",
        "addr:housenumber": "90",
        "addr:postcode": "12207",
        "addr:state": "NY",
        "addr:street": "State Street",
        "addr:unit": "700",
        "email": "admin@irstaxpros.com",
        "fax": "+1-866-936-1810",
        "name": "Timothy S Hart Law Group, P.C.",
        "office": "lawyer",
        "opening_hours": "Mo-Fr 09:00-17:00",
        "phone": "+1-518-213-3445",
        "website": "https://irstaxpros.com/"
      }
    },
    {
      "type": "node",
      "id": 8017515037,
      "lat": 42.660857,
      "lon": -73.7662864,
      "tags": {
        "addr:city": "Albany",
        "addr:housenumber": "89",
        "addr:state": "NY",
        "addr:street": "Lexington Avenue",
        "name": "Historic Albany Foundation",
        "office": "association",
        "phone": "+15184650876",
        "website": "https://www.historic-albany.org"
      }
    },
    {
      "type": "node",
      "id": 8195416007,
      "lat": 42.6409322,
      "lon": -73.7809599,
      "tags": {
        "amenity": "bar",
        "name": "Ye Olde Sports Bar"
      }
    },
    {
      "type": "node",
      "id": 8223711539,
      "lat": 42.6643464,
      "lon": -73.7860369,
      "tags": {
        "name": "College of Saint Rose Campus Bookstore",
        "shop": "books"
      }
    },
    {
      "type": "node",
      "id": 8223750887,
      "lat": 42.661054,
      "lon": -73.772157,
      "tags": {
        "amenity": "restaurant",
        "name": "Downtown Deli"
      }
    },
    {
      "type": "node",
      "id": 8359356752,
      "lat": 42.6381734,
      "lon": -73.7462125,
      "tags": {
        "addr:city": "Rensselaer",
        "addr:housenumber": "17",
        "addr:postcode": "12144",
        "addr:state": "NY",
        "addr:street": "Second Avenue",
        "amenity": "restaurant",
        "cuisine": "thai",
        "name": "Thai Orchid",
        "nysgissam:nysaddresspointid": "RENS052014"
      }
    },
    {
      "type": "node",
      "id": 8359358186,
      "lat": 42.6382977,
      "lon": -73.7460637,
      "tags": {
        "addr:city": "Rensselaer",
        "addr:housenumber": "47",
        "addr:postcode": "12144",
        "addr:state": "NY",
        "addr:street": "Washington Street",
        "addr:unit": "1",
        "name": "Steven Market & Deli",
        "nysgissam:nysaddresspointid": "RENS068751",
        "shop": "deli"
      }
    },
    {
      "type": "node",
      "id": 8359372516,
      "lat": 42.6419851,
      "lon": -73.743633,
      "tags": {
        "addr:city": "Rensselaer",
        "addr:housenumber": "450;448",
        "addr:postcode": "12144",
        "addr:state": "NY",
        "addr:street": "Broadway",
        "alt_name": "Dunkin' Donuts",
        "amenity": "fast_food",
        "brand": "Dunkin'",
        "brand:wikidata": "Q847743",
        "cuisine": "donut;coffee_shop",
        "drive_through": "yes",
        "name": "Dunkin'",
        "nysgissam:nysaddresspointid": "RENS043480",
        "opening_hours": "04:00-22:00",
        "phone": "+1 518-462-9398",
        "ref": "330340",
        "takeaway": "yes",
        "website": "https://locations.dunkindonuts.com/en/ny/rensselaer/448-broadway/330340"
      }
    },
    {
      "type": "node",
      "id": 8359385291,
      "lat": 42.6386721,
      "lon": -73.7451185,
      "tags": {
        "addr:city": "Rensselaer",
        "addr:housenumber": "62",
        "addr:postcode": "12144",
        "addr:state": "NY",
        "addr:street": "Washington Street",
        "government": "administrative",
        "name": "City of Rensselaer",
        "nysgissam:nysaddresspointid": "RENS009531",
        "nysgissam:review": "existing element has different addr:street",
        "office": "government",
        "operator": "City of Rensselaer",
        "operator:wikidata": "Q1380769"
      }
    },
    {
      "type": "node",
      "id": 8399619016,
      "lat": 42.6485346,
      "lon": -73.7534739,
      "tags": {
        "addr:city": "Albany",
        "addr:housenumber": "38",
        "addr:postcode": "12207",
        "addr:state": "NY",
        "addr:street": "South Pearl Street",
        "addr:unit": "1",
        "amenity": "restaurant",
        "cuisine": "turkish;mediterranean",
        "name": "The Spinning Gyro",
        "nysgissam:nysaddresspointid": "ALBA105721;ALBA108078",
        "phone": "+15182277783",
        "website": "https://spinninggyro.com/"
      }
    },
    {
      "type": "node",
      "id": 8399619480,
      "lat": 42.6495405,
      "lon": -73.7671371,
      "tags": {
        "addr:city": "Albany",
        "addr:flats": "1-2",
        "addr:housenumber": "146",
        "addr:postcode": "12202",
        "addr:state": "NY",
        "addr:street": "Dove Street",
        "name": "Love Dove Tattoo",
        "nysgissam:nysaddresspointid": "ALBA116386;ALBA116178;ALBA008332",
        "shop": "tattoo"
      }
    },
    {
      "type": "node",
      "id": 8399623883,
      "lat": 42.6583345,
      "lon": -73.7785408,
      "tags": {
        "addr:city": "Albany",
        "addr:flats": "1-7;10",
        "addr:housenumber": "736",
        "addr:postcode": "12208",
        "addr:state": "NY",
        "addr:street": "Madison Avenue",
        "amenity": "doctors",
        "healthcare": "doctor",
        "name": "Trzcinski Nancy H",
        "nysgissam:nysaddresspointid": "ALBA137200;ALBA136929;ALBA015798;ALBA137193;ALBA137017;ALBA136959;ALBA136942;ALBA155144;ALBA137036",
        "phone": "+1-518-463-3169"
      }
    },
    {
      "type": "node",
      "id": 8399624665,
      "lat": 42.6483558,
      "lon": -73.7535539,
      "tags": {
        "addr:city": "Albany",
        "addr:housenumber": "50",
        "addr:postcode": "12207",
        "addr:state": "NY",
        "addr:street": "South Pearl Street",
        "amenity": "restaurant",
        "cuisine": "sandwich",
        "name": "Maurice's Delicatessen",
        "nysgissam:nysaddresspointid": "ALBA101698;ALBA108016",
        "opening_hours": "Mo-Fr 07:30-15:00",
        "outdoor_seating": "no",
        "phone": "+15184347364",
        "website": "http://www.mauricesdeli.com/"
      }
    },
    {
      "type": "node",
      "id": 8399631285,
      "lat": 42.6565261,
      "lon": -73.7632404,
      "tags": {
        "addr:city": "Albany",
        "addr:housenumber": "196",
        "addr:postcode": "12210",
        "addr:state": "NY",
        "addr:street": "Washington Avenue",
        "name": "Hold Up Roll Up",
        "nysgissam:nysaddresspointid": "ALBA015549",
        "nysgissam:review": "existing element's addr:housenumber has different addr:housenumber",
        "old_name": "Keybank",
        "shop": "cannabis",
        "was:amenity": "bank"
      }
    },
    {
      "type": "node",
      "id": 8399632094,
      "lat": 42.6590009,
      "lon": -73.7781704,
      "tags": {
        "addr:city": "Albany",
        "addr:floor": "Floor 1;Floor 2;Floor 3",
        "addr:housenumber": "747",
        "addr:postcode": "12208",
        "addr:state": "NY",
        "addr:street": "Madison Avenue",
        "name": "Natural Effects Massage Therapy",
        "nysgissam:nysaddresspointid": "ALBA155207;ALBA155132;ALBA016880;ALBA154995",
        "phone": "+1-518-817-5798",
        "shop": "massage"
      }
    },
    {
      "type": "node",
      "id": 8442173472,
      "lat": 42.6345861,
      "lon": -73.7453514,
      "tags": {
        "addr:city": "Rensselaer",
        "addr:housenumber": "305",
        "addr:postcode": "12144",
        "addr:state": "NY",
        "addr:street": "Columbia Street",
        "amenity": "pharmacy",
        "brand": "Rite Aid",
        "brand:wikidata": "Q3433273",
        "dispensing": "yes",
        "healthcare": "pharmacy",
        "name": "Rite Aid",
        "nysgissam:nysaddresspointid": "RENS051359"
      }
    },
    {
      "type": "node",
      "id": 8551309384,
      "lat": 42.6513294,
      "lon": -73.7826029,
      "tags": {
        "amenity": "cafe",
        "name": "Hazels Caf"
      }
    },
    {
      "type": "node",
      "id": 8551309387,
      "lat": 42.6505384,
      "lon": -73.7790946,
      "tags": {
        "addr:city": "Albany",
        "addr:housenumber": "41",
        "addr:state": "NY",
        "addr:street": "Union Drive",
        "name": "Russell Sage College Bookstore",
        "note": "located at Albany College of Pharmacy and Health Sciences",
        "operator": "Follett Higher Education Group",
        "shop": "books"
      }
    },
    {
      "type": "node",
      "id": 9118724782,
      "lat": 42.6528986,
      "lon": -73.7572173,
      "tags": {
        "addr:city": "Albany",
        "addr:housenumber": "170",
        "addr:postcode": "12207",
        "addr:state": "NY",
        "addr:street": "State Street",
        "alt_name": "Dunkin' Donuts",
        "amenity": "fast_food",
        "brand": "Dunkin'",
        "brand:wikidata": "Q847743",
        "contact:website": "https://locations.dunkindonuts.com/en/ny/albany/170-state-st/352901",
        "cuisine": "donut;coffee_shop",
        "drive_through": "no",
        "name": "Dunkin'",
        "note": "located in cafeteria of Capitol building",
        "opening_hours": "Mo-Fr 07:00-17:00; Sa-Su 00:00-24:00",
        "phone": "+1 518-427-2897",
        "ref": "352901",
        "takeaway": "yes",
        "website": "https://locations.dunkindonuts.com/en/ny/albany/170-state-st/352901"
      }
    },
    {
      "type": "node",
      "id": 9461329260,
      "lat": 42.6522084,
      "lon": -73.751254,
      "tags": {
        "addr:city": "Albany",
        "addr:housenumber": "74",
        "addr:state": "NY",
        "addr:street": "North Pearl Street",
        "amenity": "fast_food",
        "cuisine": "burger",
        "diet:vegan": "yes",
        "diet:vegetarian": "yes",
        "name": "Wizard Burger",
        "opening_hours": "Mo-We 11:00-20:00; Th 11:00-21:00; Fr 11:00-22:00; Sa 12:00-22:00; Su 12:00-19:00",
        "phone": "+15182509940",
        "website": "https://www.wizardburger.com/"
      }
    },
    {
      "type": "node",
      "id": 9461754024,
      "lat": 42.6521585,
      "lon": -73.752329,
      "tags": {
        "addr:housenumber": "6",
        "addr:street": "Lodge Street",
        "name": "Albany County District Attorney",
        "office": "government"
      }
    },
    {
      "type": "node",
      "id": 9461754027,
      "lat": 42.6529123,
      "lon": -73.7518216,
      "tags": {
        "amenity": "bar",
        "leisure": "axe_throwing",
        "name": "The Yard",
        "note": "axa throwing venue with bar",
        "website": "https://theyardalbany.com/"
      }
    },
    {
      "type": "node",
      "id": 9461759010,
      "lat": 42.6514765,
      "lon": -73.7535204,
      "tags": {
        "addr:city": "Albany",
        "addr:housenumber": "21",
        "addr:street": "Lodge Street",
        "name": "Albany Local Development Corporation",
        "office": "ngo"
      }
    },
    {
      "type": "node",
      "id": 9461759011,
      "lat": 42.6514236,
      "lon": -73.7535584,
      "tags": {
        "addr:city": "Albany",
        "addr:housenumber": "21",
        "addr:street": "Lodge Street",
        "name": "Downtown Albany Business Improvement District",
        "office": "ngo"
      }
    },
    {
      "type": "node",
      "id": 9525336818,
      "lat": 42.6583241,
      "lon": -73.7654794,
      "tags": {
        "name": "Preservation League of New York State",
        "office": "ngo"
      }
    },
    {
      "type": "node",
      "id": 9531282385,
      "lat": 42.6489642,
      "lon": -73.7515632,
      "tags": {
        "amenity": "bank",
        "brand": "Chase",
        "brand:wikidata": "Q524629",
        "check_date": "2024-09-17",
        "check_date:opening_hours": "2024-09-17",
        "name": "Chase",
        "opening_hours": "Mo-Fr 09:00-17:00; Sa-Su closed",
        "phone": "+1 518-704-2790",
        "website": "https://locator.chase.com/ny/albany/50-state-st"
      }
    },
    {
      "type": "node",
      "id": 9555353443,
      "lat": 42.6461193,
      "lon": -73.7548018,
      "tags": {
        "brand": "Boost Mobile",
        "brand:wikidata": "Q4943790",
        "name": "Boost Mobile",
        "shop": "mobile_phone"
      }
    },
    {
      "type": "node",
      "id": 9555353444,
      "lat": 42.6462458,
      "lon": -73.7547439,
      "tags": {
        "alt_name": "MetroPCS",
        "brand": "Metro by T-Mobile",
        "brand:wikidata": "Q1925685",
        "name": "Metro by T-Mobile",
        "shop": "mobile_phone"
      }
    },
    {
      "type": "node",
      "id": 9555380621,
      "lat": 42.6460035,
      "lon": -73.7552889,
      "tags": {
        "amenity": "restaurant",
        "cuisine": "pizza",
        "name": "Tuscan Pie",
        "old_name": "Stella Del Mare",
        "was:shop": "convenience"
      }
    },
    {
      "type": "node",
      "id": 9556276037,
      "lat": 42.6506429,
      "lon": -73.7548881,
      "tags": {
        "amenity": "bank",
        "brand": "Capital Bank",
        "brand:wikidata": "Q5035481",
        "name": "Capital Bank",
        "opening_hours": "Mo-Fr 09:30-16:30"
      }
    },
    {
      "type": "node",
      "id": 9647454633,
      "lat": 42.6517819,
      "lon": -73.7545473,
      "tags": {
        "addr:city": "Albany",
        "addr:housenumber": "24",
        "addr:postcode": "12207",
        "addr:state": "NY",
        "addr:street": "Eagle Street",
        "government": "administrative",
        "name": "City of Albany",
        "office": "government",
        "operator": "City of Albany",
        "operator:wikidata": "Q24861"
      }
    },
    {
      "type": "node",
      "id": 9742264232,
      "lat": 42.649525,
      "lon": -73.75491,
      "tags": {
        "addr:city": "Albany",
        "addr:housenumber": "42",
        "addr:postcode": "12207",
        "addr:state": "NY",
        "addr:street": "Howard Street",
        "amenity": "restaurant",
        "cuisine": "sushi",
        "name": "Sushi by Bou",
        "note": "in basement of City Beer Hall",
        "old_name": "Speakeasy 518",
        "phone": "+1-888-670-5996",
        "was:amenity": "bar",
        "website": "https://sushibybou.com"
      }
    },
    {
      "type": "node",
      "id": 9773856376,
      "lat": 42.6618798,
      "lon": -73.7437824,
      "tags": {
        "amenity": "pub",
        "name": "Nine Pin Tasting Room",
        "website": "https://www.ninepincider.com/tasting-room"
      }
    },
    {
      "type": "node",
      "id": 9842630610,
      "lat": 42.6619499,
      "lon": -73.7780156,
      "tags": {
        "addr:housenumber": "234",
        "addr:street": "Western Avenue",
        "amenity": "restaurant",
        "cuisine": "thai",
        "name": "Suwun Thai Home Cooking",
        "old_name": "The Cuckoo's Nest;The Ginger Man"
      }
    },
    {
      "type": "node",
      "id": 9875603814,
      "lat": 42.6521703,
      "lon": -73.767362,
      "tags": {
        "name": "Daisie's Pasteles",
        "old_name": "Son of Egg",
        "shop": "bakery"
      }
    },
    {
      "type": "node",
      "id": 9875603815,
      "lat": 42.6522311,
      "lon": -73.767528,
      "tags": {
        "alt_name": "PizzaRoni",
        "amenity": "restaurant",
        "cuisine": "pizza",
        "name": "LoLo's",
        "old_name": "Dino's Pizza"
      }
    },
    {
      "type": "node",
      "id": 9875603816,
      "lat": 42.6521167,
      "lon": -73.7676073,
      "tags": {
        "addr:housenumber": "4",
        "addr:street": "Delaware Avenue",
        "amenity": "restaurant",
        "diet:halal": "yes",
        "name": "Shah's Halal Food"
      }
    },
    {
      "type": "node",
      "id": 9880143492,
      "lat": 42.6474792,
      "lon": -73.7572339,
      "tags": {
        "amenity": "bar",
        "name": "The Bull and Bee Taproom & Meadery",
        "old_name": "Bulgaro's Tavern",
        "website": "https://thebullandbee.com/"
      }
    },
    {
      "type": "node",
      "id": 9883448809,
      "lat": 42.6585658,
      "lon": -73.7586774,
      "tags": {
        "addr:city": "Albany",
        "addr:housenumber": "255",
        "addr:state": "NY",
        "addr:street": "Orange Street",
        "description": "Tenants rights, eviction prevention, courtroom advocacy, housing counseling",
        "email": "info@unitedtenantsalbany.org",
        "name": "United Tenants of Albany",
        "office": "association",
        "website": "https://utalbany.org/"
      }
    },
    {
      "type": "node",
      "id": 9883506621,
      "lat": 42.6578898,
      "lon": -73.75915,
      "tags": {
        "name": "Habitat for Humanity Capital District",
        "office": "association"
      }
    },
    {
      "type": "node",
      "id": 9883734407,
      "lat": 42.6456745,
      "lon": -73.755013,
      "tags": {
        "name": "African American Cultural Center of the Capital Region, Inc.",
        "office": "association",
        "website": "https://www.aacccr.org/"
      }
    },
    {
      "type": "node",
      "id": 9890365193,
      "lat": 42.6520678,
      "lon": -73.7513568,
      "tags": {
        "addr:housenumber": "74",
        "addr:street": "North Pearl Street",
        "amenity": "fast_food",
        "cuisine": "sandwich;vietnamese",
        "name": "Banh Mi 47"
      }
    },
    {
      "type": "node",
      "id": 9890535902,
      "lat": 42.6540178,
      "lon": -73.7733117,
      "tags": {
        "addr:city": "Albany",
        "addr:housenumber": "17",
        "addr:postcode": "12208",
        "addr:state": "NY",
        "addr:street": "New Scotland Avenue",
        "amenity": "fast_food",
        "brand": "Chipotle",
        "brand:wikidata": "Q465751",
        "cuisine": "mexican",
        "name": "Chipotle",
        "official_name": "Chipotle Mexican Grill",
        "phone": "+1 518-312-4591",
        "takeaway": "yes",
        "website": "https://locations.chipotle.com/ny/albany/17-new-scotland-ave"
      }
    },
    {
      "type": "node",
      "id": 9890535903,
      "lat": 42.6536502,
      "lon": -73.7737242,
      "tags": {
        "amenity": "pharmacy",
        "brand": "Walgreens",
        "brand:wikidata": "Q1591889",
        "dispensing": "yes",
        "healthcare": "pharmacy",
        "name": "Walgreens"
      }
    },
    {
      "type": "node",
      "id": 9907729714,
      "lat": 42.6402434,
      "lon": -73.7844958,
      "tags": {
        "amenity": "restaurant",
        "cuisine": "peruvian;empanada",
        "name": "La Empanada Llama"
      }
    },
    {
      "type": "node",
      "id": 9907826640,
      "lat": 42.6413276,
      "lon": -73.780733,
      "tags": {
        "name": "Delaware Corner Laundry",
        "opening_hours": "24/7",
        "self_service": "yes",
        "shop": "laundry"
      }
    },
    {
      "type": "node",
      "id": 9909980596,
      "lat": 42.6594912,
      "lon": -73.7738586,
      "tags": {
        "amenity": "bar",
        "name": "The Argus Hotel Cocktail Lounge",
        "website": "https://www.theargushotel.com/lounge"
      }
    },
    {
      "type": "node",
      "id": 9910504674,
      "lat": 42.6606515,
      "lon": -73.783496,
      "tags": {
        "amenity": "pub",
        "name": "Casey Finn's Pub & Grill"
      }
    },
    {
      "type": "node",
      "id": 9921518602,
      "lat": 42.6559315,
      "lon": -73.7625821,
      "tags": {
        "amenity": "cafe",
        "name": "Iron Gate Cafe",
        "outdoor_seating": "yes"
      }
    },
    {
      "type": "node",
      "id": 9921548324,
      "lat": 42.6562431,
      "lon": -73.7639948,
      "tags": {
        "addr:city": "Albany",
        "addr:housenumber": "197",
        "addr:postcode": "12210",
        "addr:state": "NY",
        "addr:street": "Lark Street",
        "addr:unit": "1",
        "name": "The Happie Collective",
        "old_name": "D.P. Dough;Crisan Bakery & Edible Art Gallery",
        "second_hand": "only",
        "shop": "clothes",
        "was:amenity": "restaurant"
      }
    },
    {
      "type": "node",
      "id": 9921548325,
      "lat": 42.6562959,
      "lon": -73.7639386,
      "tags": {
        "addr:city": "Albany",
        "addr:housenumber": "195",
        "addr:postcode": "12210",
        "addr:state": "NY",
        "addr:street": "Lark Street",
        "addr:unit": "1",
        "amenity": "restaurant",
        "cuisine": "pizza",
        "name": "Noho Pizza",
        "phone": "+1-518-433-1111",
        "website": "https://nohopizza.com/"
      }
    },
    {
      "type": "node",
      "id": 9921548326,
      "lat": 42.656419,
      "lon": -73.7638016,
      "tags": {
        "addr:city": "Albany",
        "addr:housenumber": "193",
        "addr:postcode": "12210",
        "addr:state": "NY",
        "addr:street": "Lark Street",
        "addr:unit": "1",
        "amenity": "fast_food",
        "cuisine": "donut",
        "diet:vegan": "yes",
        "name": "Bitchin Donuts",
        "nysgissam:nysaddresspointid": "ALBA097893;ALBA108349",
        "old_name": "Kinnaree",
        "was:cuisine": "thai"
      }
    },
    {
      "type": "node",
      "id": 9921548327,
      "lat": 42.6565523,
      "lon": -73.7636655,
      "tags": {
        "addr:city": "Albany",
        "addr:housenumber": "187",
        "addr:postcode": "12210",
        "addr:state": "NY",
        "addr:street": "Lark Street",
        "amenity": "restaurant",
        "cuisine": "indian",
        "email": "Info@jewelonlark.com",
        "fax": "+1-518-649-3099",
        "name": "Jewel of India on Lark",
        "opening_hours": "Mo-Th 11:30-22:00; Fr 11:30-22:30; Sa 12:00-22:30; Su 12:00-22:00",
        "phone": "+1-518-512-5600",
        "website": "http://www.jewelonlark.com/"
      }
    },
    {
      "type": "node",
      "id": 9921548328,
      "lat": 42.65651,
      "lon": -73.763706,
      "tags": {
        "addr:city": "Albany",
        "addr:housenumber": "189",
        "addr:postcode": "12210-1306",
        "addr:state": "NY",
        "addr:street": "Lark Street",
        "amenity": "restaurant",
        "cuisine": "nigerian",
        "name": "Keobi",
        "phone": "+1-518-977-3991"
      }
    },
    {
      "type": "node",
      "id": 9921548329,
      "lat": 42.656463,
      "lon": -73.7637584,
      "tags": {
        "name": "Imperial Mart",
        "shop": "convenience"
      }
    },